{
  "schema_version": 1,
  "source": "SMN georef location search",
  "endpoint": "https://ws1.smn.gob.ar/v1/georef/location/search",
  "generated_at": "2026-06-29T04:56:09.383953+00:00",
  "count": 62,
  "locations": {
    "16": {
      "id": 16,
      "name": "Isla Diez",
      "department": "General Roca",
      "province": "Río Negro",
      "station_number": 87719,
      "forecast_reference_id": 19,
      "lon": -67.9223,
      "lat": -38.9938,
      "distance_km": 7.6,
      "station_name": "CIPOLLETTI",
      "source": "SMN georef location search"
    },
    "258": {
      "id": 258,
      "name": "Isla de Cañas",
      "department": "Iruyá",
      "province": "Salta",
      "station_number": 87016,
      "forecast_reference_id": 291,
      "lon": -64.6668,
      "lat": -22.8963,
      "distance_km": 44.99,
      "station_name": "ORAN AERO",
      "source": "SMN georef location search"
    },
    "332": {
      "id": 332,
      "name": "El Retiro",
      "department": "General José de San Martín",
      "province": "Salta",
      "station_number": 87022,
      "forecast_reference_id": 291,
      "lon": -63.4204,
      "lat": -22.9242,
      "distance_km": 51.5,
      "station_name": "TARTAGAL AERO",
      "source": "SMN georef location search"
    },
    "721": {
      "id": 721,
      "name": "El Recreo",
      "department": "Rivadavia",
      "province": "Salta",
      "station_number": 87065,
      "forecast_reference_id": 794,
      "lon": -62.7368,
      "lat": -23.4614,
      "distance_km": 81.62,
      "station_name": "RIVADAVIA",
      "source": "SMN georef location search"
    },
    "1014": {
      "id": 1014,
      "name": "El Retiro",
      "department": "Metán",
      "province": "Salta",
      "station_number": 87050,
      "forecast_reference_id": 1018,
      "lon": -64.8536,
      "lat": -25.4931,
      "distance_km": 12.49,
      "station_name": "METAN",
      "source": "SMN georef location search"
    },
    "1275": {
      "id": 1275,
      "name": "El Retiro",
      "department": "Iglesia",
      "province": "San Juan",
      "station_number": 87305,
      "forecast_reference_id": 1298,
      "lon": -69.259,
      "lat": -30.2925,
      "distance_km": 50.53,
      "station_name": "JACHAL",
      "source": "SMN georef location search"
    },
    "1584": {
      "id": 1584,
      "name": "La Reforma",
      "department": "Ayacucho",
      "province": "San Luis",
      "station_number": 87322,
      "forecast_reference_id": 1601,
      "lon": -66.265,
      "lat": -32.1794,
      "distance_km": 98.87,
      "station_name": "CHEPES",
      "source": "SMN georef location search"
    },
    "2816": {
      "id": 2816,
      "name": "Isla de Los Sotelos",
      "department": "Río Hondo",
      "province": "Santiago del Estero",
      "station_number": 87127,
      "forecast_reference_id": 2819,
      "lon": -64.6886,
      "lat": -27.4735,
      "distance_km": 24.55,
      "station_name": "TERMAS DE RIO HONDO AERO",
      "source": "SMN georef location search"
    },
    "2818": {
      "id": 2818,
      "name": "Isla Aragones",
      "department": "Río Hondo",
      "province": "Santiago del Estero",
      "station_number": 87127,
      "forecast_reference_id": 2819,
      "lon": -64.6464,
      "lat": -27.4529,
      "distance_km": 29.06,
      "station_name": "TERMAS DE RIO HONDO AERO",
      "source": "SMN georef location search"
    },
    "2905": {
      "id": 2905,
      "name": "El Retiro",
      "department": "Jimenez",
      "province": "Santiago del Estero",
      "station_number": 87127,
      "forecast_reference_id": 2819,
      "lon": -64.4283,
      "lat": -27.0721,
      "distance_km": 69.45,
      "station_name": "TERMAS DE RIO HONDO AERO",
      "source": "SMN georef location search"
    },
    "3002": {
      "id": 3002,
      "name": "Isla Corral",
      "department": "Banda",
      "province": "Santiago del Estero",
      "station_number": 87129,
      "forecast_reference_id": 2954,
      "lon": -64.1011,
      "lat": -27.7329,
      "distance_km": 19.74,
      "station_name": "SANTIAGO DEL ESTERO AERO",
      "source": "SMN georef location search"
    },
    "3236": {
      "id": 3236,
      "name": "El Lucero",
      "department": "Moreno",
      "province": "Santiago del Estero",
      "station_number": 87148,
      "forecast_reference_id": 3278,
      "lon": -61.7288,
      "lat": -27.3073,
      "distance_km": 138.03,
      "station_name": "PRESIDENCIA ROQUE SAENZ PEÑA AERO",
      "source": "SMN georef location search"
    },
    "3923": {
      "id": 3923,
      "name": "El Recluta",
      "department": "25 de Mayo",
      "province": "Buenos Aires",
      "station_number": 87550,
      "forecast_reference_id": 3989,
      "lon": -60.6232,
      "lat": -35.7888,
      "distance_km": 45.34,
      "station_name": "NUEVE DE JULIO",
      "source": "SMN georef location search"
    },
    "3925": {
      "id": 3925,
      "name": "La Reforma",
      "department": "25 de Mayo",
      "province": "Buenos Aires",
      "station_number": 87550,
      "forecast_reference_id": 3989,
      "lon": -60.5234,
      "lat": -35.7745,
      "distance_km": 49.41,
      "station_name": "NUEVE DE JULIO",
      "source": "SMN georef location search"
    },
    "3926": {
      "id": 3926,
      "name": "El Retiro",
      "department": "25 de Mayo",
      "province": "Buenos Aires",
      "station_number": 87550,
      "forecast_reference_id": 3989,
      "lon": -60.5518,
      "lat": -35.8228,
      "distance_km": 52.03,
      "station_name": "NUEVE DE JULIO",
      "source": "SMN georef location search"
    },
    "3927": {
      "id": 3927,
      "name": "Haras Don Santiago",
      "department": "25 de Mayo",
      "province": "Buenos Aires",
      "station_number": 87550,
      "forecast_reference_id": 3989,
      "lon": -60.347,
      "lat": -35.5002,
      "distance_km": 49.02,
      "station_name": "NUEVE DE JULIO",
      "source": "SMN georef location search"
    },
    "3931": {
      "id": 3931,
      "name": "El Terete",
      "department": "25 de Mayo",
      "province": "Buenos Aires",
      "station_number": 87550,
      "forecast_reference_id": 3989,
      "lon": -60.3224,
      "lat": -35.3733,
      "distance_km": 51.34,
      "station_name": "NUEVE DE JULIO",
      "source": "SMN georef location search"
    },
    "3932": {
      "id": 3932,
      "name": "La Chacra",
      "department": "25 de Mayo",
      "province": "Buenos Aires",
      "station_number": 87550,
      "forecast_reference_id": 3989,
      "lon": -60.2712,
      "lat": -35.6577,
      "distance_km": 60.46,
      "station_name": "NUEVE DE JULIO",
      "source": "SMN georef location search"
    },
    "3933": {
      "id": 3933,
      "name": "La Querencia",
      "department": "25 de Mayo",
      "province": "Buenos Aires",
      "station_number": 87550,
      "forecast_reference_id": 3989,
      "lon": -60.2915,
      "lat": -35.7139,
      "distance_km": 61.6,
      "station_name": "NUEVE DE JULIO",
      "source": "SMN georef location search"
    },
    "3934": {
      "id": 3934,
      "name": "El Lucero",
      "department": "25 de Mayo",
      "province": "Buenos Aires",
      "station_number": 87550,
      "forecast_reference_id": 3989,
      "lon": -60.252,
      "lat": -35.7136,
      "distance_km": 64.72,
      "station_name": "NUEVE DE JULIO",
      "source": "SMN georef location search"
    },
    "3935": {
      "id": 3935,
      "name": "Las Dos Marias",
      "department": "25 de Mayo",
      "province": "Buenos Aires",
      "station_number": 87550,
      "forecast_reference_id": 3989,
      "lon": -60.2655,
      "lat": -35.7465,
      "distance_km": 65.46,
      "station_name": "NUEVE DE JULIO",
      "source": "SMN georef location search"
    },
    "3941": {
      "id": 3941,
      "name": "El Recreo",
      "department": "25 de Mayo",
      "province": "Buenos Aires",
      "station_number": 87550,
      "forecast_reference_id": 3989,
      "lon": -60.1871,
      "lat": -35.6524,
      "distance_km": 67.31,
      "station_name": "NUEVE DE JULIO",
      "source": "SMN georef location search"
    },
    "3942": {
      "id": 3942,
      "name": "El Chingolo",
      "department": "25 de Mayo",
      "province": "Buenos Aires",
      "station_number": 87550,
      "forecast_reference_id": 3989,
      "lon": -60.1727,
      "lat": -35.515,
      "distance_km": 64.91,
      "station_name": "NUEVE DE JULIO",
      "source": "SMN georef location search"
    },
    "3943": {
      "id": 3943,
      "name": "Cabaña",
      "department": "25 de Mayo",
      "province": "Buenos Aires",
      "station_number": 87550,
      "forecast_reference_id": 3989,
      "lon": -60.1431,
      "lat": -35.2396,
      "distance_km": 70.71,
      "station_name": "NUEVE DE JULIO",
      "source": "SMN georef location search"
    },
    "3946": {
      "id": 3946,
      "name": "Cabaña La Florida",
      "department": "Chivilcoy",
      "province": "Buenos Aires",
      "station_number": 87550,
      "forecast_reference_id": 3989,
      "lon": -60.043,
      "lat": -35.0721,
      "distance_km": 86.52,
      "station_name": "NUEVE DE JULIO",
      "source": "SMN georef location search"
    },
    "3952": {
      "id": 3952,
      "name": "Mamaguita",
      "department": "25 de Mayo",
      "province": "Buenos Aires",
      "station_number": 87550,
      "forecast_reference_id": 3989,
      "lon": -60.2248,
      "lat": -35.6879,
      "distance_km": 65.66,
      "station_name": "NUEVE DE JULIO",
      "source": "SMN georef location search"
    },
    "3954": {
      "id": 3954,
      "name": "Isla",
      "department": "25 de Mayo",
      "province": "Buenos Aires",
      "station_number": 87550,
      "forecast_reference_id": 3989,
      "lon": -60.3559,
      "lat": -35.5669,
      "distance_km": 49.79,
      "station_name": "NUEVE DE JULIO",
      "source": "SMN georef location search"
    },
    "3956": {
      "id": 3956,
      "name": "Ortiz de Rozas",
      "department": "25 de Mayo",
      "province": "Buenos Aires",
      "station_number": 87550,
      "forecast_reference_id": 3989,
      "lon": -60.3781,
      "lat": -35.4028,
      "distance_km": 45.93,
      "station_name": "NUEVE DE JULIO",
      "source": "SMN georef location search"
    },
    "3957": {
      "id": 3957,
      "name": "Araujo",
      "department": "25 de Mayo",
      "province": "Buenos Aires",
      "station_number": 87550,
      "forecast_reference_id": 3989,
      "lon": -60.3263,
      "lat": -35.3052,
      "distance_km": 52.63,
      "station_name": "NUEVE DE JULIO",
      "source": "SMN georef location search"
    },
    "3972": {
      "id": 3972,
      "name": "Blas Durañona",
      "department": "25 de Mayo",
      "province": "Buenos Aires",
      "station_number": 87550,
      "forecast_reference_id": 3989,
      "lon": -60.1343,
      "lat": -35.4805,
      "distance_km": 68.02,
      "station_name": "NUEVE DE JULIO",
      "source": "SMN georef location search"
    },
    "3974": {
      "id": 3974,
      "name": "Anderson",
      "department": "25 de Mayo",
      "province": "Buenos Aires",
      "station_number": 87550,
      "forecast_reference_id": 3989,
      "lon": -60.2608,
      "lat": -35.2796,
      "distance_km": 59.16,
      "station_name": "NUEVE DE JULIO",
      "source": "SMN georef location search"
    },
    "3976": {
      "id": 3976,
      "name": "Del Valle",
      "department": "25 de Mayo",
      "province": "Buenos Aires",
      "station_number": 87550,
      "forecast_reference_id": 3989,
      "lon": -60.7279,
      "lat": -35.8976,
      "distance_km": 52.76,
      "station_name": "NUEVE DE JULIO",
      "source": "SMN georef location search"
    },
    "3986": {
      "id": 3986,
      "name": "Gobernador Ugarte",
      "department": "25 de Mayo",
      "province": "Buenos Aires",
      "station_number": 87550,
      "forecast_reference_id": 3989,
      "lon": -60.0797,
      "lat": -35.1654,
      "distance_km": 79.02,
      "station_name": "NUEVE DE JULIO",
      "source": "SMN georef location search"
    },
    "3996": {
      "id": 3996,
      "name": "Mosconi",
      "department": "25 de Mayo",
      "province": "Buenos Aires",
      "station_number": 87550,
      "forecast_reference_id": 3989,
      "lon": -60.5531,
      "lat": -35.739,
      "distance_km": 44.68,
      "station_name": "NUEVE DE JULIO",
      "source": "SMN georef location search"
    },
    "4032": {
      "id": 4032,
      "name": "Martín Berraondo",
      "department": "25 de Mayo",
      "province": "Buenos Aires",
      "station_number": 87550,
      "forecast_reference_id": 3989,
      "lon": -59.9483,
      "lat": -35.3152,
      "distance_km": 85.94,
      "station_name": "NUEVE DE JULIO",
      "source": "SMN georef location search"
    },
    "4033": {
      "id": 4033,
      "name": "Ernestina",
      "department": "25 de Mayo",
      "province": "Buenos Aires",
      "station_number": 87550,
      "forecast_reference_id": 3989,
      "lon": -59.5562,
      "lat": -35.2696,
      "distance_km": 121.95,
      "station_name": "NUEVE DE JULIO",
      "source": "SMN georef location search"
    },
    "4048": {
      "id": 4048,
      "name": "Norberto de La Riestra",
      "department": "25 de Mayo",
      "province": "Buenos Aires",
      "station_number": 87550,
      "forecast_reference_id": 3989,
      "lon": -59.7713,
      "lat": -35.2741,
      "distance_km": 102.59,
      "station_name": "NUEVE DE JULIO",
      "source": "SMN georef location search"
    },
    "4135": {
      "id": 4135,
      "name": "La Reforma",
      "department": "Pila",
      "province": "Buenos Aires",
      "station_number": 87648,
      "forecast_reference_id": 4146,
      "lon": -58.6376,
      "lat": -36.209,
      "distance_km": 83.6,
      "station_name": "DOLORES AERO",
      "source": "SMN georef location search"
    },
    "4346": {
      "id": 4346,
      "name": "Cabaña El Destino",
      "department": "Coronel Suarez",
      "province": "Buenos Aires",
      "station_number": 87637,
      "forecast_reference_id": 4338,
      "lon": -61.9957,
      "lat": -37.4081,
      "distance_km": 10.56,
      "station_name": "CORONEL SUAREZ AERO",
      "source": "SMN georef location search"
    },
    "4550": {
      "id": 4550,
      "name": "La Querencia",
      "department": "Patagones",
      "province": "Buenos Aires",
      "station_number": 87679,
      "forecast_reference_id": 4338,
      "lon": -62.7923,
      "lat": -40.4764,
      "distance_km": 320.35,
      "station_name": "PIGUE AERO",
      "source": "SMN georef location search"
    },
    "4938": {
      "id": 4938,
      "name": "El Recreo",
      "department": "Santa María",
      "province": "Catamarca",
      "station_number": 87121,
      "forecast_reference_id": 4941,
      "lon": -66.0531,
      "lat": -26.7201,
      "distance_km": 94.84,
      "station_name": "TUCUMAN AERO",
      "source": "SMN georef location search"
    },
    "4965": {
      "id": 4965,
      "name": "El Retiro",
      "department": "Tinogasta",
      "province": "Catamarca",
      "station_number": 87211,
      "forecast_reference_id": 5257,
      "lon": -67.6432,
      "lat": -27.7288,
      "distance_km": 38.28,
      "station_name": "TINOGASTA",
      "source": "SMN georef location search"
    },
    "5351": {
      "id": 5351,
      "name": "El Recreo",
      "department": "General Güemes",
      "province": "Chaco",
      "station_number": 87065,
      "forecast_reference_id": 5385,
      "lon": -62.0729,
      "lat": -24.6175,
      "distance_km": 95.42,
      "station_name": "RIVADAVIA",
      "source": "SMN georef location search"
    },
    "5576": {
      "id": 5576,
      "name": "El Retiro",
      "department": "Bermejo",
      "province": "Chaco",
      "station_number": 87155,
      "forecast_reference_id": 5648,
      "lon": -58.8465,
      "lat": -26.84,
      "distance_km": 69.24,
      "station_name": "RESISTENCIA AERO",
      "source": "SMN georef location search"
    },
    "6143": {
      "id": 6143,
      "name": "Isla de San Antonio",
      "department": "Tulumba",
      "province": "Córdoba",
      "station_number": 87244,
      "forecast_reference_id": 10955,
      "lon": -64.4139,
      "lat": -30.029,
      "distance_km": 67.63,
      "station_name": "VILLA DE MARIA DEL RIO SECO",
      "source": "SMN georef location search"
    },
    "6255": {
      "id": 6255,
      "name": "El Retiro",
      "department": "Sobremonte",
      "province": "Córdoba",
      "station_number": 87244,
      "forecast_reference_id": 10955,
      "lon": -63.9226,
      "lat": -30.0117,
      "distance_km": 22.18,
      "station_name": "VILLA DE MARIA DEL RIO SECO",
      "source": "SMN georef location search"
    },
    "6319": {
      "id": 6319,
      "name": "Isla de los Chorros",
      "department": "Río Seco",
      "province": "Córdoba",
      "station_number": 87244,
      "forecast_reference_id": 10955,
      "lon": -63.2668,
      "lat": -30.2106,
      "distance_km": 55.82,
      "station_name": "VILLA DE MARIA DEL RIO SECO",
      "source": "SMN georef location search"
    },
    "7702": {
      "id": 7702,
      "name": "La Querencia",
      "department": "Concordia",
      "province": "Entre Ríos",
      "station_number": 87395,
      "forecast_reference_id": 7706,
      "lon": -58.4384,
      "lat": -31.0727,
      "distance_km": 48.81,
      "station_name": "CONCORDIA AERO",
      "source": "SMN georef location search"
    },
    "7962": {
      "id": 7962,
      "name": "Isla de Torre",
      "department": "Matacos",
      "province": "Formosa",
      "station_number": 87065,
      "forecast_reference_id": 7925,
      "lon": -62.0508,
      "lat": -24.2133,
      "distance_km": 84.97,
      "station_name": "RIVADAVIA",
      "source": "SMN georef location search"
    },
    "7963": {
      "id": 7963,
      "name": "Isla de Ponce",
      "department": "Matacos",
      "province": "Formosa",
      "station_number": 87065,
      "forecast_reference_id": 7925,
      "lon": -62.0228,
      "lat": -24.205,
      "distance_km": 87.79,
      "station_name": "RIVADAVIA",
      "source": "SMN georef location search"
    },
    "7976": {
      "id": 7976,
      "name": "Isla de Cuba",
      "department": "Matacos",
      "province": "Formosa",
      "station_number": 87065,
      "forecast_reference_id": 7925,
      "lon": -61.8539,
      "lat": -24.2926,
      "distance_km": 105.56,
      "station_name": "RIVADAVIA",
      "source": "SMN georef location search"
    },
    "7983": {
      "id": 7983,
      "name": "Isla Chica",
      "department": "Bermejo",
      "province": "Formosa",
      "station_number": 87065,
      "forecast_reference_id": 7925,
      "lon": -61.7336,
      "lat": -24.3157,
      "distance_km": 117.98,
      "station_name": "RIVADAVIA",
      "source": "SMN georef location search"
    },
    "8002": {
      "id": 8002,
      "name": "El Retiro",
      "department": "Bermejo",
      "province": "Formosa",
      "station_number": 87078,
      "forecast_reference_id": 7925,
      "lon": -60.3945,
      "lat": -23.9949,
      "distance_km": 80.95,
      "station_name": "LAS LOMITAS",
      "source": "SMN georef location search"
    },
    "8199": {
      "id": 8199,
      "name": "El Recreo",
      "department": "Patiño",
      "province": "Formosa",
      "station_number": 87078,
      "forecast_reference_id": 8088,
      "lon": -59.2773,
      "lat": -25.0317,
      "distance_km": 137.98,
      "station_name": "LAS LOMITAS",
      "source": "SMN georef location search"
    },
    "8646": {
      "id": 8646,
      "name": "Isla Chica",
      "department": "Santa Bárbara",
      "province": "Jujuy",
      "station_number": 87046,
      "forecast_reference_id": 8618,
      "lon": -64.325,
      "lat": -24.0211,
      "distance_km": 87.99,
      "station_name": "JUJUY AERO",
      "source": "SMN georef location search"
    },
    "8881": {
      "id": 8881,
      "name": "La Reforma",
      "department": "Limay Mahuida",
      "province": "La Pampa",
      "station_number": 87616,
      "forecast_reference_id": 8817,
      "lon": -66.2268,
      "lat": -37.5501,
      "distance_km": 164.48,
      "station_name": "VICTORICA",
      "source": "SMN georef location search"
    },
    "8947": {
      "id": 8947,
      "name": "El Retiro",
      "department": "San Blas de Los Sauces",
      "province": "La Rioja",
      "station_number": 87213,
      "forecast_reference_id": 8969,
      "lon": -67.0231,
      "lat": -28.2688,
      "distance_km": 112.93,
      "station_name": "CHILECITO AERO",
      "source": "SMN georef location search"
    },
    "9505": {
      "id": 9505,
      "name": "La Chacra",
      "department": "La Paz",
      "province": "Mendoza",
      "station_number": 87416,
      "forecast_reference_id": 9450,
      "lon": -67.6052,
      "lat": -33.5074,
      "distance_km": 93.44,
      "station_name": "SAN MARTIN (MZA)",
      "source": "SMN georef location search"
    },
    "10001": {
      "id": 10001,
      "name": "La Chacra",
      "department": "Catan Lil",
      "province": "Neuquén",
      "station_number": 87761,
      "forecast_reference_id": 9933,
      "lon": -70.5859,
      "lat": -39.5642,
      "distance_km": 74.64,
      "station_name": "CHAPELCO AERO",
      "source": "SMN georef location search"
    },
    "10800": {
      "id": 10800,
      "name": "Isla del Cerrito",
      "department": "Bermejo",
      "province": "Chaco",
      "station_number": 87155,
      "forecast_reference_id": 5648,
      "lon": -58.6149,
      "lat": -27.2898,
      "distance_km": 45.74,
      "station_name": "RESISTENCIA AERO",
      "source": "SMN georef location search"
    },
    "10861": {
      "id": 10861,
      "name": "Isla de los Estados",
      "department": null,
      "province": "Tierra del Fuego, Antártida e Islas del Atlántico Sur",
      "station_number": 87934,
      "forecast_reference_id": 5908,
      "lon": -64.3909,
      "lat": -54.7975,
      "distance_km": 246.79,
      "station_name": "RIO GRANDE B.A.",
      "source": "SMN georef location search"
    },
    "10873": {
      "id": 10873,
      "name": "Parque Nacional Campos del Tuyú",
      "department": null,
      "province": "Buenos Aires",
      "station_number": 87648,
      "forecast_reference_id": 4159,
      "lon": -56.8667,
      "lat": -36.35,
      "distance_km": 76.42,
      "station_name": "DOLORES AERO",
      "source": "SMN georef location search"
    }
  }
}
