{
  "schema_version": 1,
  "source": "SMN georef location search",
  "endpoint": "https://ws1.smn.gob.ar/v1/georef/location/search",
  "generated_at": "2026-06-29T13:35:00.714985+00:00",
  "count": 8282,
  "locations": {
    "1": {
      "id": 1,
      "name": "Valle Verde",
      "department": "General Roca",
      "province": "Río Negro",
      "station_number": 87719,
      "forecast_reference_id": 19,
      "lon": -68.0344,
      "lat": -37.6214,
      "distance_km": 146.58,
      "station_name": "CIPOLLETTI",
      "source": "SMN georef location search"
    },
    "2": {
      "id": 2,
      "name": "Álamo del Colorado",
      "department": "General Roca",
      "province": "Río Negro",
      "station_number": 87719,
      "forecast_reference_id": 19,
      "lon": -67.933,
      "lat": -37.6321,
      "distance_km": 145.37,
      "station_name": "CIPOLLETTI",
      "source": "SMN georef location search"
    },
    "3": {
      "id": 3,
      "name": "Colonia Peñas Blancas",
      "department": "General Roca",
      "province": "Río Negro",
      "station_number": 87719,
      "forecast_reference_id": 19,
      "lon": -67.8663,
      "lat": -37.6649,
      "distance_km": 142.01,
      "station_name": "CIPOLLETTI",
      "source": "SMN georef location search"
    },
    "4": {
      "id": 4,
      "name": "Peñas Blancas",
      "department": "General Roca",
      "province": "Río Negro",
      "station_number": 87719,
      "forecast_reference_id": 19,
      "lon": -67.8683,
      "lat": -37.6926,
      "distance_km": 138.93,
      "station_name": "CIPOLLETTI",
      "source": "SMN georef location search"
    },
    "5": {
      "id": 5,
      "name": "Medianera",
      "department": "General Roca",
      "province": "Río Negro",
      "station_number": 87719,
      "forecast_reference_id": 19,
      "lon": -67.9511,
      "lat": -37.931,
      "distance_km": 112.16,
      "station_name": "CIPOLLETTI",
      "source": "SMN georef location search"
    },
    "6": {
      "id": 6,
      "name": "Colonia Catriel",
      "department": "General Roca",
      "province": "Río Negro",
      "station_number": 87719,
      "forecast_reference_id": 19,
      "lon": -67.8264,
      "lat": -37.9053,
      "distance_km": 115.76,
      "station_name": "CIPOLLETTI",
      "source": "SMN georef location search"
    },
    "7": {
      "id": 7,
      "name": "Catriel",
      "department": "General Roca",
      "province": "Río Negro",
      "station_number": 87719,
      "forecast_reference_id": 19,
      "lon": -67.7969,
      "lat": -37.8774,
      "distance_km": 119.15,
      "station_name": "CIPOLLETTI",
      "source": "SMN georef location search"
    },
    "8": {
      "id": 8,
      "name": "Roldán",
      "department": "General Roca",
      "province": "Río Negro",
      "station_number": 87719,
      "forecast_reference_id": 19,
      "lon": -67.138,
      "lat": -38.363,
      "distance_km": 97.33,
      "station_name": "CIPOLLETTI",
      "source": "SMN georef location search"
    },
    "9": {
      "id": 9,
      "name": "La Japonesa",
      "department": "Avellaneda",
      "province": "Río Negro",
      "station_number": 87719,
      "forecast_reference_id": 8907,
      "lon": -66.4107,
      "lat": -38.7443,
      "distance_km": 137.85,
      "station_name": "CIPOLLETTI",
      "source": "SMN georef location search"
    },
    "10": {
      "id": 10,
      "name": "Barda del Medio",
      "department": "General Roca",
      "province": "Río Negro",
      "station_number": 87719,
      "forecast_reference_id": 19,
      "lon": -68.1529,
      "lat": -38.7207,
      "distance_km": 28.79,
      "station_name": "CIPOLLETTI",
      "source": "SMN georef location search"
    },
    "11": {
      "id": 11,
      "name": "Cinco Esquinas",
      "department": "General Roca",
      "province": "Río Negro",
      "station_number": 87719,
      "forecast_reference_id": 19,
      "lon": -68.0491,
      "lat": -38.8549,
      "distance_km": 11.37,
      "station_name": "CIPOLLETTI",
      "source": "SMN georef location search"
    },
    "12": {
      "id": 12,
      "name": "Las Perlas",
      "department": "El Cuy",
      "province": "Río Negro",
      "station_number": 87774,
      "forecast_reference_id": 169,
      "lon": -68.1314,
      "lat": -38.9939,
      "distance_km": 254.6,
      "station_name": "MAQUINCHAO",
      "source": "SMN georef location search"
    },
    "13": {
      "id": 13,
      "name": "Contralmirante Cordero",
      "department": "General Roca",
      "province": "Río Negro",
      "station_number": 87719,
      "forecast_reference_id": 19,
      "lon": -68.0988,
      "lat": -38.7563,
      "distance_km": 23.03,
      "station_name": "CIPOLLETTI",
      "source": "SMN georef location search"
    },
    "14": {
      "id": 14,
      "name": "Sargento Vidal",
      "department": "General Roca",
      "province": "Río Negro",
      "station_number": 87719,
      "forecast_reference_id": 19,
      "lon": -68.1569,
      "lat": -38.686,
      "distance_km": 32.29,
      "station_name": "CIPOLLETTI",
      "source": "SMN georef location search"
    },
    "15": {
      "id": 15,
      "name": "Villa Manzano",
      "department": "General Roca",
      "province": "Río Negro",
      "station_number": 87719,
      "forecast_reference_id": 19,
      "lon": -68.213,
      "lat": -38.6799,
      "distance_km": 35.45,
      "station_name": "CIPOLLETTI",
      "source": "SMN georef location search"
    },
    "16": {
      "id": 16,
      "name": "Isla Diez",
      "department": "General Roca",
      "province": "Río Negro",
      "station_number": 87719,
      "forecast_reference_id": 19,
      "lon": -67.9223,
      "lat": -38.9938,
      "distance_km": 7.6,
      "station_name": "CIPOLLETTI",
      "source": "SMN georef location search"
    },
    "17": {
      "id": 17,
      "name": "Los Barreales",
      "department": "General Roca",
      "province": "Río Negro",
      "station_number": 87719,
      "forecast_reference_id": 19,
      "lon": -68.0341,
      "lat": -38.3955,
      "distance_km": 60.77,
      "station_name": "CIPOLLETTI",
      "source": "SMN georef location search"
    },
    "18": {
      "id": 18,
      "name": "Península Ruca Co",
      "department": "General Roca",
      "province": "Río Negro",
      "station_number": 87719,
      "forecast_reference_id": 19,
      "lon": -68.036,
      "lat": -38.703,
      "distance_km": 26.91,
      "station_name": "CIPOLLETTI",
      "source": "SMN georef location search"
    },
    "20": {
      "id": 20,
      "name": "General Fernández Oro",
      "department": "General Roca",
      "province": "Río Negro",
      "station_number": 87719,
      "forecast_reference_id": 19,
      "lon": -67.9256,
      "lat": -38.9536,
      "distance_km": 4.79,
      "station_name": "CIPOLLETTI",
      "source": "SMN georef location search"
    },
    "21": {
      "id": 21,
      "name": "Allen",
      "department": "General Roca",
      "province": "Río Negro",
      "station_number": 87719,
      "forecast_reference_id": 19,
      "lon": -67.8291,
      "lat": -38.9767,
      "distance_km": 13.54,
      "station_name": "CIPOLLETTI",
      "source": "SMN georef location search"
    },
    "22": {
      "id": 22,
      "name": "Cinco Saltos",
      "department": "General Roca",
      "province": "Río Negro",
      "station_number": 87719,
      "forecast_reference_id": 19,
      "lon": -68.0634,
      "lat": -38.8262,
      "distance_km": 14.74,
      "station_name": "CIPOLLETTI",
      "source": "SMN georef location search"
    },
    "23": {
      "id": 23,
      "name": "Pichi Mahuida",
      "department": "Pichi Mahuida",
      "province": "Río Negro",
      "station_number": 87736,
      "forecast_reference_id": 8907,
      "lon": -64.9367,
      "lat": -38.8355,
      "distance_km": 75.68,
      "station_name": "RIO COLORADO",
      "source": "SMN georef location search"
    },
    "24": {
      "id": 24,
      "name": "Juan de Garay",
      "department": "Pichi Mahuida",
      "province": "Río Negro",
      "station_number": 87736,
      "forecast_reference_id": 30,
      "lon": -64.547,
      "lat": -38.8706,
      "distance_km": 42.06,
      "station_name": "RIO COLORADO",
      "source": "SMN georef location search"
    },
    "25": {
      "id": 25,
      "name": "Coronel Eugenio del Busto",
      "department": "Pichi Mahuida",
      "province": "Río Negro",
      "station_number": 87736,
      "forecast_reference_id": 30,
      "lon": -64.2122,
      "lat": -38.9484,
      "distance_km": 11.83,
      "station_name": "RIO COLORADO",
      "source": "SMN georef location search"
    },
    "26": {
      "id": 26,
      "name": "Colonia Reig",
      "department": "Pichi Mahuida",
      "province": "Río Negro",
      "station_number": 87736,
      "forecast_reference_id": 30,
      "lon": -64.1451,
      "lat": -38.9788,
      "distance_km": 5.2,
      "station_name": "RIO COLORADO",
      "source": "SMN georef location search"
    },
    "27": {
      "id": 27,
      "name": "Colonia Julia y Echarren",
      "department": "Pichi Mahuida",
      "province": "Río Negro",
      "station_number": 87736,
      "forecast_reference_id": 30,
      "lon": -64.033,
      "lat": -39.0301,
      "distance_km": 6.39,
      "station_name": "RIO COLORADO",
      "source": "SMN georef location search"
    },
    "28": {
      "id": 28,
      "name": "Puesto 15 Grande",
      "department": "Pichi Mahuida",
      "province": "Río Negro",
      "station_number": 87736,
      "forecast_reference_id": 30,
      "lon": -63.4186,
      "lat": -39.7279,
      "distance_km": 100.06,
      "station_name": "RIO COLORADO",
      "source": "SMN georef location search"
    },
    "29": {
      "id": 29,
      "name": "Río Colorado",
      "department": "Pichi Mahuida",
      "province": "Río Negro",
      "station_number": 87736,
      "forecast_reference_id": 30,
      "lon": -64.0939,
      "lat": -38.9968,
      "distance_km": 0.86,
      "station_name": "RIO COLORADO",
      "source": "SMN georef location search"
    },
    "31": {
      "id": 31,
      "name": "Rincón de Cruz",
      "department": "Avellaneda",
      "province": "Río Negro",
      "station_number": 87784,
      "forecast_reference_id": 30,
      "lon": -65.8168,
      "lat": -39.356,
      "distance_km": 169.41,
      "station_name": "SAN ANTONIO OESTE AERO",
      "source": "SMN georef location search"
    },
    "32": {
      "id": 32,
      "name": "Darwin",
      "department": "Avellaneda",
      "province": "Río Negro",
      "station_number": 87736,
      "forecast_reference_id": 30,
      "lon": -65.74,
      "lat": -39.202,
      "distance_km": 144.89,
      "station_name": "RIO COLORADO",
      "source": "SMN georef location search"
    },
    "33": {
      "id": 33,
      "name": "Bajo Hondo",
      "department": "Avellaneda",
      "province": "Río Negro",
      "station_number": 87736,
      "forecast_reference_id": 30,
      "lon": -65.7864,
      "lat": -39.0512,
      "distance_km": 147.3,
      "station_name": "RIO COLORADO",
      "source": "SMN georef location search"
    },
    "34": {
      "id": 34,
      "name": "Pomona",
      "department": "Avellaneda",
      "province": "Río Negro",
      "station_number": 87784,
      "forecast_reference_id": 30,
      "lon": -65.6116,
      "lat": -39.4845,
      "distance_km": 149.73,
      "station_name": "SAN ANTONIO OESTE AERO",
      "source": "SMN georef location search"
    },
    "35": {
      "id": 35,
      "name": "Colonia Josefa",
      "department": "Avellaneda",
      "province": "Río Negro",
      "station_number": 87784,
      "forecast_reference_id": 30,
      "lon": -65.4929,
      "lat": -39.6051,
      "distance_km": 133.84,
      "station_name": "SAN ANTONIO OESTE AERO",
      "source": "SMN georef location search"
    },
    "36": {
      "id": 36,
      "name": "Colonia Chocori",
      "department": "Conesa",
      "province": "Río Negro",
      "station_number": 87784,
      "forecast_reference_id": 131,
      "lon": -64.9046,
      "lat": -39.9187,
      "distance_km": 93.72,
      "station_name": "SAN ANTONIO OESTE AERO",
      "source": "SMN georef location search"
    },
    "37": {
      "id": 37,
      "name": "Coronel Belisle",
      "department": "Avellaneda",
      "province": "Río Negro",
      "station_number": 87784,
      "forecast_reference_id": 30,
      "lon": -65.9564,
      "lat": -39.1859,
      "distance_km": 191.54,
      "station_name": "SAN ANTONIO OESTE AERO",
      "source": "SMN georef location search"
    },
    "38": {
      "id": 38,
      "name": "Luis Beltran",
      "department": "Avellaneda",
      "province": "Río Negro",
      "station_number": 87784,
      "forecast_reference_id": 30,
      "lon": -65.7641,
      "lat": -39.3108,
      "distance_km": 172.36,
      "station_name": "SAN ANTONIO OESTE AERO",
      "source": "SMN georef location search"
    },
    "39": {
      "id": 39,
      "name": "Lamarque",
      "department": "Avellaneda",
      "province": "Río Negro",
      "station_number": 87784,
      "forecast_reference_id": 30,
      "lon": -65.6987,
      "lat": -39.4229,
      "distance_km": 158.72,
      "station_name": "SAN ANTONIO OESTE AERO",
      "source": "SMN georef location search"
    },
    "40": {
      "id": 40,
      "name": "Naupa Huen",
      "department": "Pilcaniyeu",
      "province": "Río Negro",
      "station_number": 87774,
      "forecast_reference_id": 169,
      "lon": -69.9058,
      "lat": -39.9543,
      "distance_km": 175.53,
      "station_name": "MAQUINCHAO",
      "source": "SMN georef location search"
    },
    "41": {
      "id": 41,
      "name": "La Tapera",
      "department": "El Cuy",
      "province": "Río Negro",
      "station_number": 87761,
      "forecast_reference_id": 9933,
      "lon": -69.552,
      "lat": -39.8228,
      "distance_km": 139.03,
      "station_name": "CHAPELCO AERO",
      "source": "SMN georef location search"
    },
    "42": {
      "id": 42,
      "name": "Aguada del Trapo",
      "department": "El Cuy",
      "province": "Río Negro",
      "station_number": 87774,
      "forecast_reference_id": 169,
      "lon": -69.0105,
      "lat": -39.9393,
      "distance_km": 147.14,
      "station_name": "MAQUINCHAO",
      "source": "SMN georef location search"
    },
    "44": {
      "id": 44,
      "name": "Cervantes",
      "department": "General Roca",
      "province": "Río Negro",
      "station_number": 87719,
      "forecast_reference_id": 19,
      "lon": -67.3966,
      "lat": -39.0525,
      "distance_km": 51.9,
      "station_name": "CIPOLLETTI",
      "source": "SMN georef location search"
    },
    "45": {
      "id": 45,
      "name": "Mainque",
      "department": "General Roca",
      "province": "Río Negro",
      "station_number": 87719,
      "forecast_reference_id": 19,
      "lon": -67.3063,
      "lat": -39.0631,
      "distance_km": 59.78,
      "station_name": "CIPOLLETTI",
      "source": "SMN georef location search"
    },
    "47": {
      "id": 47,
      "name": "Villa Regina",
      "department": "General Roca",
      "province": "Río Negro",
      "station_number": 87719,
      "forecast_reference_id": 19,
      "lon": -67.0844,
      "lat": -39.1004,
      "distance_km": 79.42,
      "station_name": "CIPOLLETTI",
      "source": "SMN georef location search"
    },
    "48": {
      "id": 48,
      "name": "General E. Godoy",
      "department": "General Roca",
      "province": "Río Negro",
      "station_number": 87719,
      "forecast_reference_id": 19,
      "lon": -67.1535,
      "lat": -39.0764,
      "distance_km": 73.02,
      "station_name": "CIPOLLETTI",
      "source": "SMN georef location search"
    },
    "49": {
      "id": 49,
      "name": "Ingeniero Luis A. Huergo",
      "department": "General Roca",
      "province": "Río Negro",
      "station_number": 87719,
      "forecast_reference_id": 19,
      "lon": -67.2411,
      "lat": -39.0735,
      "distance_km": 65.54,
      "station_name": "CIPOLLETTI",
      "source": "SMN georef location search"
    },
    "50": {
      "id": 50,
      "name": "Otto Krause",
      "department": "General Roca",
      "province": "Río Negro",
      "station_number": 87719,
      "forecast_reference_id": 19,
      "lon": -66.9473,
      "lat": -39.1029,
      "distance_km": 91.09,
      "station_name": "CIPOLLETTI",
      "source": "SMN georef location search"
    },
    "51": {
      "id": 51,
      "name": "Chichinales",
      "department": "General Roca",
      "province": "Río Negro",
      "station_number": 87719,
      "forecast_reference_id": 19,
      "lon": -66.9373,
      "lat": -39.1157,
      "distance_km": 92.22,
      "station_name": "CIPOLLETTI",
      "source": "SMN georef location search"
    },
    "52": {
      "id": 52,
      "name": "Villa Alberdi",
      "department": "General Roca",
      "province": "Río Negro",
      "station_number": 87719,
      "forecast_reference_id": 19,
      "lon": -67.0301,
      "lat": -39.1282,
      "distance_km": 84.7,
      "station_name": "CIPOLLETTI",
      "source": "SMN georef location search"
    },
    "53": {
      "id": 53,
      "name": "Charco de Varela",
      "department": "Avellaneda",
      "province": "Río Negro",
      "station_number": 87719,
      "forecast_reference_id": 30,
      "lon": -66.7516,
      "lat": -39.5008,
      "distance_km": 122.82,
      "station_name": "CIPOLLETTI",
      "source": "SMN georef location search"
    },
    "54": {
      "id": 54,
      "name": "Valle Azul",
      "department": "El Cuy",
      "province": "Río Negro",
      "station_number": 87719,
      "forecast_reference_id": 19,
      "lon": -66.7757,
      "lat": -39.1598,
      "distance_km": 106.91,
      "station_name": "CIPOLLETTI",
      "source": "SMN georef location search"
    },
    "55": {
      "id": 55,
      "name": "Chelforo",
      "department": "Avellaneda",
      "province": "Río Negro",
      "station_number": 87719,
      "forecast_reference_id": 30,
      "lon": -66.53,
      "lat": -39.0746,
      "distance_km": 126.33,
      "station_name": "CIPOLLETTI",
      "source": "SMN georef location search"
    },
    "56": {
      "id": 56,
      "name": "Bajo Santa Rosa",
      "department": "Valcheta",
      "province": "Río Negro",
      "station_number": 87719,
      "forecast_reference_id": 131,
      "lon": -66.5769,
      "lat": -39.9515,
      "distance_km": 164.73,
      "station_name": "CIPOLLETTI",
      "source": "SMN georef location search"
    },
    "57": {
      "id": 57,
      "name": "Chimpay",
      "department": "Avellaneda",
      "province": "Río Negro",
      "station_number": 87719,
      "forecast_reference_id": 30,
      "lon": -66.1561,
      "lat": -39.1779,
      "distance_km": 159.91,
      "station_name": "CIPOLLETTI",
      "source": "SMN georef location search"
    },
    "58": {
      "id": 58,
      "name": "Colonia Santa Gregoria",
      "department": "Avellaneda",
      "province": "Río Negro",
      "station_number": 87719,
      "forecast_reference_id": 30,
      "lon": -66.2019,
      "lat": -39.1725,
      "distance_km": 155.9,
      "station_name": "CIPOLLETTI",
      "source": "SMN georef location search"
    },
    "59": {
      "id": 59,
      "name": "Colonia Laure",
      "department": "Avellaneda",
      "province": "Río Negro",
      "station_number": 87784,
      "forecast_reference_id": 30,
      "lon": -66.0818,
      "lat": -39.1695,
      "distance_km": 197.83,
      "station_name": "SAN ANTONIO OESTE AERO",
      "source": "SMN georef location search"
    },
    "60": {
      "id": 60,
      "name": "General Roca",
      "department": "General Roca",
      "province": "Río Negro",
      "station_number": 87719,
      "forecast_reference_id": 19,
      "lon": -67.5739,
      "lat": -39.028,
      "distance_km": 36.36,
      "station_name": "CIPOLLETTI",
      "source": "SMN georef location search"
    },
    "61": {
      "id": 61,
      "name": "Rentería",
      "department": "El Cuy",
      "province": "Río Negro",
      "station_number": 87774,
      "forecast_reference_id": 169,
      "lon": -68.4487,
      "lat": -39.3399,
      "distance_km": 212.55,
      "station_name": "MAQUINCHAO",
      "source": "SMN georef location search"
    },
    "62": {
      "id": 62,
      "name": "Gueupo Ranquineo",
      "department": "El Cuy",
      "province": "Río Negro",
      "station_number": 87774,
      "forecast_reference_id": 169,
      "lon": -68.3015,
      "lat": -39.4304,
      "distance_km": 204.29,
      "station_name": "MAQUINCHAO",
      "source": "SMN georef location search"
    },
    "63": {
      "id": 63,
      "name": "Trica - Co",
      "department": "El Cuy",
      "province": "Río Negro",
      "station_number": 87774,
      "forecast_reference_id": 169,
      "lon": -68.0233,
      "lat": -39.6214,
      "distance_km": 189.26,
      "station_name": "MAQUINCHAO",
      "source": "SMN georef location search"
    },
    "64": {
      "id": 64,
      "name": "Mallín Grande",
      "department": "El Cuy",
      "province": "Río Negro",
      "station_number": 87774,
      "forecast_reference_id": 169,
      "lon": -68.4282,
      "lat": -39.5788,
      "distance_km": 186.4,
      "station_name": "MAQUINCHAO",
      "source": "SMN georef location search"
    },
    "65": {
      "id": 65,
      "name": "Bajada de Bravo",
      "department": "El Cuy",
      "province": "Río Negro",
      "station_number": 87774,
      "forecast_reference_id": 169,
      "lon": -68.4823,
      "lat": -39.6129,
      "distance_km": 182.11,
      "station_name": "MAQUINCHAO",
      "source": "SMN georef location search"
    },
    "66": {
      "id": 66,
      "name": "El Manzano",
      "department": "El Cuy",
      "province": "Río Negro",
      "station_number": 87774,
      "forecast_reference_id": 169,
      "lon": -68.471,
      "lat": -39.6458,
      "distance_km": 178.58,
      "station_name": "MAQUINCHAO",
      "source": "SMN georef location search"
    },
    "67": {
      "id": 67,
      "name": "Cerro Policía",
      "department": "El Cuy",
      "province": "Río Negro",
      "station_number": 87774,
      "forecast_reference_id": 169,
      "lon": -68.4893,
      "lat": -39.7263,
      "distance_km": 169.52,
      "station_name": "MAQUINCHAO",
      "source": "SMN georef location search"
    },
    "68": {
      "id": 68,
      "name": "Barda Colorada",
      "department": "El Cuy",
      "province": "Río Negro",
      "station_number": 87774,
      "forecast_reference_id": 169,
      "lon": -68.7034,
      "lat": -39.8667,
      "distance_km": 152.93,
      "station_name": "MAQUINCHAO",
      "source": "SMN georef location search"
    },
    "69": {
      "id": 69,
      "name": "El Hunquillo",
      "department": "9 de Julio",
      "province": "Río Negro",
      "station_number": 87774,
      "forecast_reference_id": 169,
      "lon": -68.06,
      "lat": -39.9547,
      "distance_km": 153.26,
      "station_name": "MAQUINCHAO",
      "source": "SMN georef location search"
    },
    "70": {
      "id": 70,
      "name": "El Anfiteatro",
      "department": "El Cuy",
      "province": "Río Negro",
      "station_number": 87774,
      "forecast_reference_id": 169,
      "lon": -68.4564,
      "lat": -39.2994,
      "distance_km": 216.96,
      "station_name": "MAQUINCHAO",
      "source": "SMN georef location search"
    },
    "71": {
      "id": 71,
      "name": "El Cuy",
      "department": "El Cuy",
      "province": "Río Negro",
      "station_number": 87774,
      "forecast_reference_id": 169,
      "lon": -68.351,
      "lat": -39.9301,
      "distance_km": 148.96,
      "station_name": "MAQUINCHAO",
      "source": "SMN georef location search"
    },
    "72": {
      "id": 72,
      "name": "Colonia General Conesa",
      "department": "Conesa",
      "province": "Río Negro",
      "station_number": 87784,
      "forecast_reference_id": 131,
      "lon": -64.3813,
      "lat": -40.0948,
      "distance_km": 91.92,
      "station_name": "SAN ANTONIO OESTE AERO",
      "source": "SMN georef location search"
    },
    "73": {
      "id": 73,
      "name": "General Conesa",
      "department": "Conesa",
      "province": "Río Negro",
      "station_number": 87784,
      "forecast_reference_id": 131,
      "lon": -64.4525,
      "lat": -40.1081,
      "distance_km": 87.2,
      "station_name": "SAN ANTONIO OESTE AERO",
      "source": "SMN georef location search"
    },
    "74": {
      "id": 74,
      "name": "Boca de La Travesia",
      "department": "Conesa",
      "province": "Río Negro",
      "station_number": 87784,
      "forecast_reference_id": 131,
      "lon": -64.0706,
      "lat": -40.2206,
      "distance_km": 100.89,
      "station_name": "SAN ANTONIO OESTE AERO",
      "source": "SMN georef location search"
    },
    "75": {
      "id": 75,
      "name": "Teniente General E. Frias",
      "department": "Conesa",
      "province": "Río Negro",
      "station_number": 87784,
      "forecast_reference_id": 131,
      "lon": -64.183,
      "lat": -40.2655,
      "distance_km": 90.25,
      "station_name": "SAN ANTONIO OESTE AERO",
      "source": "SMN georef location search"
    },
    "76": {
      "id": 76,
      "name": "General Lorenzo Vintter",
      "department": "Adolfo Alsina",
      "province": "Río Negro",
      "station_number": 87784,
      "forecast_reference_id": 131,
      "lon": -64.4923,
      "lat": -40.7465,
      "distance_km": 45.5,
      "station_name": "SAN ANTONIO OESTE AERO",
      "source": "SMN georef location search"
    },
    "77": {
      "id": 77,
      "name": "Nueva León",
      "department": "Adolfo Alsina",
      "province": "Río Negro",
      "station_number": 87784,
      "forecast_reference_id": 131,
      "lon": -64.2519,
      "lat": -40.7455,
      "distance_km": 65.8,
      "station_name": "SAN ANTONIO OESTE AERO",
      "source": "SMN georef location search"
    },
    "78": {
      "id": 78,
      "name": "Bahía Creek",
      "department": "Adolfo Alsina",
      "province": "Río Negro",
      "station_number": 87791,
      "forecast_reference_id": 132,
      "lon": -63.9219,
      "lat": -41.0907,
      "distance_km": 81.03,
      "station_name": "VIEDMA AERO",
      "source": "SMN georef location search"
    },
    "79": {
      "id": 79,
      "name": "General Liborio Bernal",
      "department": "Adolfo Alsina",
      "province": "Río Negro",
      "station_number": 87791,
      "forecast_reference_id": 131,
      "lon": -63.6559,
      "lat": -40.8297,
      "distance_km": 54.85,
      "station_name": "VIEDMA AERO",
      "source": "SMN georef location search"
    },
    "80": {
      "id": 80,
      "name": "Cubanea",
      "department": "Adolfo Alsina",
      "province": "Río Negro",
      "station_number": 87791,
      "forecast_reference_id": 131,
      "lon": -63.5095,
      "lat": -40.6336,
      "distance_km": 49.53,
      "station_name": "VIEDMA AERO",
      "source": "SMN georef location search"
    },
    "81": {
      "id": 81,
      "name": "Guardia Mitre",
      "department": "Adolfo Alsina",
      "province": "Río Negro",
      "station_number": 87791,
      "forecast_reference_id": 131,
      "lon": -63.6702,
      "lat": -40.4277,
      "distance_km": 74.09,
      "station_name": "VIEDMA AERO",
      "source": "SMN georef location search"
    },
    "82": {
      "id": 82,
      "name": "Primera Angostura",
      "department": "Adolfo Alsina",
      "province": "Río Negro",
      "station_number": 87791,
      "forecast_reference_id": 131,
      "lon": -63.781,
      "lat": -40.4608,
      "distance_km": 79.27,
      "station_name": "VIEDMA AERO",
      "source": "SMN georef location search"
    },
    "83": {
      "id": 83,
      "name": "Segunda Angostura",
      "department": "Conesa",
      "province": "Río Negro",
      "station_number": 87791,
      "forecast_reference_id": 131,
      "lon": -63.9781,
      "lat": -40.3413,
      "distance_km": 100.59,
      "station_name": "VIEDMA AERO",
      "source": "SMN georef location search"
    },
    "84": {
      "id": 84,
      "name": "Zanjón de Oyuela",
      "department": "Adolfo Alsina",
      "province": "Río Negro",
      "station_number": 87791,
      "forecast_reference_id": 131,
      "lon": -63.4164,
      "lat": -40.6774,
      "distance_km": 40.27,
      "station_name": "VIEDMA AERO",
      "source": "SMN georef location search"
    },
    "85": {
      "id": 85,
      "name": "Fuerte San Javier",
      "department": "Adolfo Alsina",
      "province": "Río Negro",
      "station_number": 87791,
      "forecast_reference_id": 131,
      "lon": -63.3054,
      "lat": -40.7472,
      "distance_km": 28.3,
      "station_name": "VIEDMA AERO",
      "source": "SMN georef location search"
    },
    "86": {
      "id": 86,
      "name": "El Juncal",
      "department": "Adolfo Alsina",
      "province": "Río Negro",
      "station_number": 87791,
      "forecast_reference_id": 131,
      "lon": -63.2219,
      "lat": -40.7921,
      "distance_km": 19.79,
      "station_name": "VIEDMA AERO",
      "source": "SMN georef location search"
    },
    "87": {
      "id": 87,
      "name": "General Simone",
      "department": "Adolfo Alsina",
      "province": "Río Negro",
      "station_number": 87791,
      "forecast_reference_id": 131,
      "lon": -63.0795,
      "lat": -40.8006,
      "distance_km": 9.29,
      "station_name": "VIEDMA AERO",
      "source": "SMN georef location search"
    },
    "88": {
      "id": 88,
      "name": "General Vintter",
      "department": "Adolfo Alsina",
      "province": "Río Negro",
      "station_number": 87791,
      "forecast_reference_id": 132,
      "lon": -63.0246,
      "lat": -40.8137,
      "distance_km": 5.73,
      "station_name": "VIEDMA AERO",
      "source": "SMN georef location search"
    },
    "89": {
      "id": 89,
      "name": "General Nicolás H. Palacios",
      "department": "Adolfo Alsina",
      "province": "Río Negro",
      "station_number": 87791,
      "forecast_reference_id": 131,
      "lon": -63.3586,
      "lat": -40.8354,
      "distance_km": 29.81,
      "station_name": "VIEDMA AERO",
      "source": "SMN georef location search"
    },
    "90": {
      "id": 90,
      "name": "Chasico",
      "department": "El Cuy",
      "province": "Río Negro",
      "station_number": 87774,
      "forecast_reference_id": 169,
      "lon": -68.973,
      "lat": -40.2967,
      "distance_km": 107.57,
      "station_name": "MAQUINCHAO",
      "source": "SMN georef location search"
    },
    "91": {
      "id": 91,
      "name": "La Esperanza",
      "department": "25 de Mayo",
      "province": "Río Negro",
      "station_number": 87774,
      "forecast_reference_id": 169,
      "lon": -68.4862,
      "lat": -40.4188,
      "distance_km": 93.49,
      "station_name": "MAQUINCHAO",
      "source": "SMN georef location search"
    },
    "92": {
      "id": 92,
      "name": "Los Menucos",
      "department": "25 de Mayo",
      "province": "Río Negro",
      "station_number": 87774,
      "forecast_reference_id": 169,
      "lon": -68.0844,
      "lat": -40.8461,
      "distance_km": 68.46,
      "station_name": "MAQUINCHAO",
      "source": "SMN georef location search"
    },
    "93": {
      "id": 93,
      "name": "Sierra Colorada",
      "department": "9 de Julio",
      "province": "Río Negro",
      "station_number": 87774,
      "forecast_reference_id": 169,
      "lon": -67.7547,
      "lat": -40.586,
      "distance_km": 108.47,
      "station_name": "MAQUINCHAO",
      "source": "SMN georef location search"
    },
    "94": {
      "id": 94,
      "name": "Coquelén",
      "department": "Pilcaniyeu",
      "province": "Río Negro",
      "station_number": 87774,
      "forecast_reference_id": 169,
      "lon": -70.4495,
      "lat": -40.7536,
      "distance_km": 156.43,
      "station_name": "MAQUINCHAO",
      "source": "SMN georef location search"
    },
    "96": {
      "id": 96,
      "name": "Laguna Blanca",
      "department": "Pilcaniyeu",
      "province": "Río Negro",
      "station_number": 87774,
      "forecast_reference_id": 169,
      "lon": -69.8406,
      "lat": -40.7267,
      "distance_km": 111.39,
      "station_name": "MAQUINCHAO",
      "source": "SMN georef location search"
    },
    "97": {
      "id": 97,
      "name": "Cañadón Chileno",
      "department": "Pilcaniyeu",
      "province": "Río Negro",
      "station_number": 87774,
      "forecast_reference_id": 169,
      "lon": -70.034,
      "lat": -40.8888,
      "distance_km": 118.34,
      "station_name": "MAQUINCHAO",
      "source": "SMN georef location search"
    },
    "98": {
      "id": 98,
      "name": "Mencue",
      "department": "El Cuy",
      "province": "Río Negro",
      "station_number": 87774,
      "forecast_reference_id": 169,
      "lon": -69.6122,
      "lat": -40.4227,
      "distance_km": 118.96,
      "station_name": "MAQUINCHAO",
      "source": "SMN georef location search"
    },
    "99": {
      "id": 99,
      "name": "La Angostura",
      "department": "El Cuy",
      "province": "Río Negro",
      "station_number": 87774,
      "forecast_reference_id": 169,
      "lon": -69.526,
      "lat": -40.37,
      "distance_km": 119.16,
      "station_name": "MAQUINCHAO",
      "source": "SMN georef location search"
    },
    "100": {
      "id": 100,
      "name": "Palenque Niyeu",
      "department": "El Cuy",
      "province": "Río Negro",
      "station_number": 87774,
      "forecast_reference_id": 169,
      "lon": -69.3549,
      "lat": -40.3144,
      "distance_km": 116.83,
      "station_name": "MAQUINCHAO",
      "source": "SMN georef location search"
    },
    "101": {
      "id": 101,
      "name": "Lonco Vaca",
      "department": "El Cuy",
      "province": "Río Negro",
      "station_number": 87774,
      "forecast_reference_id": 169,
      "lon": -69.0569,
      "lat": -40.1254,
      "distance_km": 127.69,
      "station_name": "MAQUINCHAO",
      "source": "SMN georef location search"
    },
    "102": {
      "id": 102,
      "name": "Paso Chacabuco",
      "department": "Pilcaniyeu",
      "province": "Río Negro",
      "station_number": 87774,
      "forecast_reference_id": 169,
      "lon": -70.9686,
      "lat": -40.6601,
      "distance_km": 201.19,
      "station_name": "MAQUINCHAO",
      "source": "SMN georef location search"
    },
    "103": {
      "id": 103,
      "name": "Panquehuau",
      "department": "Pilcaniyeu",
      "province": "Río Negro",
      "station_number": 87774,
      "forecast_reference_id": 169,
      "lon": -70.7285,
      "lat": -40.752,
      "distance_km": 178.68,
      "station_name": "MAQUINCHAO",
      "source": "SMN georef location search"
    },
    "104": {
      "id": 104,
      "name": "Corralito",
      "department": "Pilcaniyeu",
      "province": "Río Negro",
      "station_number": 87774,
      "forecast_reference_id": 169,
      "lon": -70.7034,
      "lat": -40.7198,
      "distance_km": 177.85,
      "station_name": "MAQUINCHAO",
      "source": "SMN georef location search"
    },
    "105": {
      "id": 105,
      "name": "Confluencia",
      "department": "Pilcaniyeu",
      "province": "Río Negro",
      "station_number": 87774,
      "forecast_reference_id": 169,
      "lon": -71.0968,
      "lat": -40.7432,
      "distance_km": 208.67,
      "station_name": "MAQUINCHAO",
      "source": "SMN georef location search"
    },
    "106": {
      "id": 106,
      "name": "Villa Llanquin",
      "department": "Pilcaniyeu",
      "province": "Río Negro",
      "station_number": 87774,
      "forecast_reference_id": 169,
      "lon": -71.0206,
      "lat": -40.9147,
      "distance_km": 197.87,
      "station_name": "MAQUINCHAO",
      "source": "SMN georef location search"
    },
    "107": {
      "id": 107,
      "name": "Pichi Leufú Abajo",
      "department": "Pilcaniyeu",
      "province": "Río Negro",
      "station_number": 87774,
      "forecast_reference_id": 169,
      "lon": -70.8908,
      "lat": -40.9599,
      "distance_km": 186.18,
      "station_name": "MAQUINCHAO",
      "source": "SMN georef location search"
    },
    "108": {
      "id": 108,
      "name": "Paso de Los Molles",
      "department": "Pilcaniyeu",
      "province": "Río Negro",
      "station_number": 87774,
      "forecast_reference_id": 169,
      "lon": -70.7388,
      "lat": -40.9116,
      "distance_km": 174.73,
      "station_name": "MAQUINCHAO",
      "source": "SMN georef location search"
    },
    "109": {
      "id": 109,
      "name": "Aguada Cecilio",
      "department": "Valcheta",
      "province": "Río Negro",
      "station_number": 87784,
      "forecast_reference_id": 131,
      "lon": -65.7885,
      "lat": -40.8575,
      "distance_km": 64.89,
      "station_name": "SAN ANTONIO OESTE AERO",
      "source": "SMN georef location search"
    },
    "110": {
      "id": 110,
      "name": "Riominsa",
      "department": "Valcheta",
      "province": "Río Negro",
      "station_number": 87784,
      "forecast_reference_id": 131,
      "lon": -65.8032,
      "lat": -40.8874,
      "distance_km": 66.73,
      "station_name": "SAN ANTONIO OESTE AERO",
      "source": "SMN georef location search"
    },
    "111": {
      "id": 111,
      "name": "Las Regatas",
      "department": "San Antonio",
      "province": "Río Negro",
      "station_number": 87784,
      "forecast_reference_id": 131,
      "lon": -65.5836,
      "lat": -40.9337,
      "distance_km": 50.56,
      "station_name": "SAN ANTONIO OESTE AERO",
      "source": "SMN georef location search"
    },
    "112": {
      "id": 112,
      "name": "Percy H. Scott",
      "department": "San Antonio",
      "province": "Río Negro",
      "station_number": 87784,
      "forecast_reference_id": 131,
      "lon": -65.6689,
      "lat": -40.8424,
      "distance_km": 54.66,
      "station_name": "SAN ANTONIO OESTE AERO",
      "source": "SMN georef location search"
    },
    "113": {
      "id": 113,
      "name": "Mancha Blanca",
      "department": "San Antonio",
      "province": "Río Negro",
      "station_number": 87784,
      "forecast_reference_id": 131,
      "lon": -65.4513,
      "lat": -40.7734,
      "distance_km": 35.54,
      "station_name": "SAN ANTONIO OESTE AERO",
      "source": "SMN georef location search"
    },
    "115": {
      "id": 115,
      "name": "Desvío Cinco Chañares",
      "department": "San Antonio",
      "province": "Río Negro",
      "station_number": 87784,
      "forecast_reference_id": 131,
      "lon": -65.2342,
      "lat": -40.7283,
      "distance_km": 17.46,
      "station_name": "SAN ANTONIO OESTE AERO",
      "source": "SMN georef location search"
    },
    "116": {
      "id": 116,
      "name": "Dr. Rogelio Cortizo",
      "department": "San Antonio",
      "province": "Río Negro",
      "station_number": 87784,
      "forecast_reference_id": 117,
      "lon": -65.021,
      "lat": -40.7291,
      "distance_km": 3.23,
      "station_name": "SAN ANTONIO OESTE AERO",
      "source": "SMN georef location search"
    },
    "118": {
      "id": 118,
      "name": "Los Álamos",
      "department": "San Antonio",
      "province": "Río Negro",
      "station_number": 87784,
      "forecast_reference_id": 117,
      "lon": -65.0507,
      "lat": -40.7786,
      "distance_km": 2.91,
      "station_name": "SAN ANTONIO OESTE AERO",
      "source": "SMN georef location search"
    },
    "119": {
      "id": 119,
      "name": "Puerto San Antonio Este",
      "department": "San Antonio",
      "province": "Río Negro",
      "station_number": 87784,
      "forecast_reference_id": 117,
      "lon": -64.8794,
      "lat": -40.804,
      "distance_km": 13.81,
      "station_name": "SAN ANTONIO OESTE AERO",
      "source": "SMN georef location search"
    },
    "120": {
      "id": 120,
      "name": "Colonia María Teresa",
      "department": "Conesa",
      "province": "Río Negro",
      "station_number": 87784,
      "forecast_reference_id": 131,
      "lon": -64.554,
      "lat": -40.0991,
      "distance_km": 83.53,
      "station_name": "SAN ANTONIO OESTE AERO",
      "source": "SMN georef location search"
    },
    "121": {
      "id": 121,
      "name": "Los Caldenes",
      "department": "Conesa",
      "province": "Río Negro",
      "station_number": 87784,
      "forecast_reference_id": 131,
      "lon": -64.5478,
      "lat": -40.4056,
      "distance_km": 56.54,
      "station_name": "SAN ANTONIO OESTE AERO",
      "source": "SMN georef location search"
    },
    "122": {
      "id": 122,
      "name": "Ministro Ramos Mexia",
      "department": "9 de Julio",
      "province": "Río Negro",
      "station_number": 87774,
      "forecast_reference_id": 169,
      "lon": -67.2547,
      "lat": -40.5063,
      "distance_km": 147.26,
      "station_name": "MAQUINCHAO",
      "source": "SMN georef location search"
    },
    "123": {
      "id": 123,
      "name": "Corral Chico",
      "department": "9 de Julio",
      "province": "Río Negro",
      "station_number": 87774,
      "forecast_reference_id": 169,
      "lon": -67.2581,
      "lat": -40.4915,
      "distance_km": 147.95,
      "station_name": "MAQUINCHAO",
      "source": "SMN georef location search"
    },
    "124": {
      "id": 124,
      "name": "Rincón de Treneta",
      "department": "9 de Julio",
      "province": "Río Negro",
      "station_number": 87774,
      "forecast_reference_id": 169,
      "lon": -67.0481,
      "lat": -40.9404,
      "distance_km": 143.35,
      "station_name": "MAQUINCHAO",
      "source": "SMN georef location search"
    },
    "125": {
      "id": 125,
      "name": "Chipauquil",
      "department": "Valcheta",
      "province": "Río Negro",
      "station_number": 87784,
      "forecast_reference_id": 131,
      "lon": -66.6353,
      "lat": -40.9629,
      "distance_km": 137.18,
      "station_name": "SAN ANTONIO OESTE AERO",
      "source": "SMN georef location search"
    },
    "126": {
      "id": 126,
      "name": "Curauf",
      "department": "Valcheta",
      "province": "Río Negro",
      "station_number": 87784,
      "forecast_reference_id": 131,
      "lon": -66.7568,
      "lat": -40.6394,
      "distance_km": 146.45,
      "station_name": "SAN ANTONIO OESTE AERO",
      "source": "SMN georef location search"
    },
    "127": {
      "id": 127,
      "name": "Nahuel Niyeu",
      "department": "Valcheta",
      "province": "Río Negro",
      "station_number": 87784,
      "forecast_reference_id": 131,
      "lon": -66.5699,
      "lat": -40.4955,
      "distance_km": 133.41,
      "station_name": "SAN ANTONIO OESTE AERO",
      "source": "SMN georef location search"
    },
    "128": {
      "id": 128,
      "name": "Campo La Querencia",
      "department": "Valcheta",
      "province": "Río Negro",
      "station_number": 87784,
      "forecast_reference_id": 131,
      "lon": -66.2676,
      "lat": -40.8168,
      "distance_km": 104.59,
      "station_name": "SAN ANTONIO OESTE AERO",
      "source": "SMN georef location search"
    },
    "129": {
      "id": 129,
      "name": "Macachín",
      "department": "Valcheta",
      "province": "Río Negro",
      "station_number": 87784,
      "forecast_reference_id": 131,
      "lon": -66.3412,
      "lat": -40.7429,
      "distance_km": 110.67,
      "station_name": "SAN ANTONIO OESTE AERO",
      "source": "SMN georef location search"
    },
    "130": {
      "id": 130,
      "name": "Chanquín",
      "department": "Valcheta",
      "province": "Río Negro",
      "station_number": 87784,
      "forecast_reference_id": 131,
      "lon": -66.3142,
      "lat": -40.7254,
      "distance_km": 108.45,
      "station_name": "SAN ANTONIO OESTE AERO",
      "source": "SMN georef location search"
    },
    "131": {
      "id": 131,
      "name": "Valcheta",
      "department": "Valcheta",
      "province": "Río Negro",
      "station_number": 87784,
      "forecast_reference_id": 131,
      "lon": -66.1656,
      "lat": -40.6763,
      "distance_km": 96.29,
      "station_name": "SAN ANTONIO OESTE AERO",
      "source": "SMN georef location search"
    },
    "133": {
      "id": 133,
      "name": "El Bolsón",
      "department": "Bariloche",
      "province": "Río Negro",
      "station_number": 87800,
      "forecast_reference_id": 137,
      "lon": -71.5355,
      "lat": -41.9683,
      "distance_km": 1.59,
      "station_name": "EL BOLSON AERO",
      "source": "SMN georef location search"
    },
    "134": {
      "id": 134,
      "name": "Llao Llao",
      "department": "Bariloche",
      "province": "Río Negro",
      "station_number": 87765,
      "forecast_reference_id": 137,
      "lon": -71.5343,
      "lat": -41.0577,
      "distance_km": 32.64,
      "station_name": "BARILOCHE AERO",
      "source": "SMN georef location search"
    },
    "135": {
      "id": 135,
      "name": "Colonia Suiza",
      "department": "Bariloche",
      "province": "Río Negro",
      "station_number": 87765,
      "forecast_reference_id": 137,
      "lon": -71.523,
      "lat": -41.0742,
      "distance_km": 31.21,
      "station_name": "BARILOCHE AERO",
      "source": "SMN georef location search"
    },
    "136": {
      "id": 136,
      "name": "Villa Catedral",
      "department": "Bariloche",
      "province": "Río Negro",
      "station_number": 87765,
      "forecast_reference_id": 137,
      "lon": -71.4447,
      "lat": -41.1641,
      "distance_km": 23.61,
      "station_name": "BARILOCHE AERO",
      "source": "SMN georef location search"
    },
    "138": {
      "id": 138,
      "name": "Ñirihuau",
      "department": "Pilcaniyeu",
      "province": "Río Negro",
      "station_number": 87765,
      "forecast_reference_id": 137,
      "lon": -71.1393,
      "lat": -41.1008,
      "distance_km": 5.59,
      "station_name": "BARILOCHE AERO",
      "source": "SMN georef location search"
    },
    "139": {
      "id": 139,
      "name": "Pilcaniyeu",
      "department": "Pilcaniyeu",
      "province": "Río Negro",
      "station_number": 87774,
      "forecast_reference_id": 169,
      "lon": -70.7213,
      "lat": -41.1228,
      "distance_km": 169.58,
      "station_name": "MAQUINCHAO",
      "source": "SMN georef location search"
    },
    "140": {
      "id": 140,
      "name": "Escorial Chenqueniyen",
      "department": "Ñorquincó",
      "province": "Río Negro",
      "station_number": 87774,
      "forecast_reference_id": 169,
      "lon": -70.7068,
      "lat": -41.5082,
      "distance_km": 169.89,
      "station_name": "MAQUINCHAO",
      "source": "SMN georef location search"
    },
    "141": {
      "id": 141,
      "name": "Reserva Cañumil",
      "department": "Ñorquincó",
      "province": "Río Negro",
      "station_number": 87774,
      "forecast_reference_id": 169,
      "lon": -70.6917,
      "lat": -41.6063,
      "distance_km": 170.76,
      "station_name": "MAQUINCHAO",
      "source": "SMN georef location search"
    },
    "142": {
      "id": 142,
      "name": "Ñorquincó",
      "department": "Ñorquincó",
      "province": "Río Negro",
      "station_number": 87774,
      "forecast_reference_id": 169,
      "lon": -70.8963,
      "lat": -41.8472,
      "distance_km": 194.6,
      "station_name": "MAQUINCHAO",
      "source": "SMN georef location search"
    },
    "143": {
      "id": 143,
      "name": "Cuesta del Ternero",
      "department": "Bariloche",
      "province": "Río Negro",
      "station_number": 87800,
      "forecast_reference_id": 137,
      "lon": -71.3655,
      "lat": -41.954,
      "distance_km": 13.97,
      "station_name": "EL BOLSON AERO",
      "source": "SMN georef location search"
    },
    "144": {
      "id": 144,
      "name": "Los Repollos",
      "department": "Bariloche",
      "province": "Río Negro",
      "station_number": 87800,
      "forecast_reference_id": 137,
      "lon": -71.4163,
      "lat": -41.846,
      "distance_km": 15.47,
      "station_name": "EL BOLSON AERO",
      "source": "SMN georef location search"
    },
    "145": {
      "id": 145,
      "name": "Mallín Ahogado",
      "department": "Bariloche",
      "province": "Río Negro",
      "station_number": 87800,
      "forecast_reference_id": 137,
      "lon": -71.5008,
      "lat": -41.8496,
      "distance_km": 11.92,
      "station_name": "EL BOLSON AERO",
      "source": "SMN georef location search"
    },
    "146": {
      "id": 146,
      "name": "Villa Mascardi",
      "department": "Bariloche",
      "province": "Río Negro",
      "station_number": 87765,
      "forecast_reference_id": 137,
      "lon": -71.4923,
      "lat": -41.3228,
      "distance_km": 33.69,
      "station_name": "BARILOCHE AERO",
      "source": "SMN georef location search"
    },
    "147": {
      "id": 147,
      "name": "Río Villegas",
      "department": "Bariloche",
      "province": "Río Negro",
      "station_number": 87800,
      "forecast_reference_id": 137,
      "lon": -71.4804,
      "lat": -41.5962,
      "distance_km": 40.0,
      "station_name": "EL BOLSON AERO",
      "source": "SMN georef location search"
    },
    "148": {
      "id": 148,
      "name": "El Foyel",
      "department": "Bariloche",
      "province": "Río Negro",
      "station_number": 87800,
      "forecast_reference_id": 137,
      "lon": -71.4617,
      "lat": -41.6584,
      "distance_km": 33.38,
      "station_name": "EL BOLSON AERO",
      "source": "SMN georef location search"
    },
    "149": {
      "id": 149,
      "name": "Pichi Leufú",
      "department": "Pilcaniyeu",
      "province": "Río Negro",
      "station_number": 87774,
      "forecast_reference_id": 169,
      "lon": -70.8296,
      "lat": -41.1288,
      "distance_km": 178.58,
      "station_name": "MAQUINCHAO",
      "source": "SMN georef location search"
    },
    "150": {
      "id": 150,
      "name": "Villa Tacul",
      "department": "Bariloche",
      "province": "Río Negro",
      "station_number": 87765,
      "forecast_reference_id": 137,
      "lon": -71.5735,
      "lat": -41.0437,
      "distance_km": 36.26,
      "station_name": "BARILOCHE AERO",
      "source": "SMN georef location search"
    },
    "152": {
      "id": 152,
      "name": "Mallin Escondido",
      "department": "Pilcaniyeu",
      "province": "Río Negro",
      "station_number": 87774,
      "forecast_reference_id": 169,
      "lon": -70.5917,
      "lat": -41.3635,
      "distance_km": 158.44,
      "station_name": "MAQUINCHAO",
      "source": "SMN georef location search"
    },
    "153": {
      "id": 153,
      "name": "Seccional Casa de Piedra",
      "department": "Pilcaniyeu",
      "province": "Río Negro",
      "station_number": 87774,
      "forecast_reference_id": 169,
      "lon": -70.4336,
      "lat": -41.1695,
      "distance_km": 145.09,
      "station_name": "MAQUINCHAO",
      "source": "SMN georef location search"
    },
    "154": {
      "id": 154,
      "name": "Río Chico",
      "department": "Ñorquincó",
      "province": "Río Negro",
      "station_number": 87774,
      "forecast_reference_id": 169,
      "lon": -70.4756,
      "lat": -41.7127,
      "distance_km": 156.66,
      "station_name": "MAQUINCHAO",
      "source": "SMN georef location search"
    },
    "155": {
      "id": 155,
      "name": "Aguada Troncoso",
      "department": "Ñorquincó",
      "province": "Río Negro",
      "station_number": 87774,
      "forecast_reference_id": 169,
      "lon": -70.3408,
      "lat": -41.7491,
      "distance_km": 147.55,
      "station_name": "MAQUINCHAO",
      "source": "SMN georef location search"
    },
    "156": {
      "id": 156,
      "name": "Comallo Arriba",
      "department": "Pilcaniyeu",
      "province": "Río Negro",
      "station_number": 87774,
      "forecast_reference_id": 169,
      "lon": -70.3457,
      "lat": -41.0934,
      "distance_km": 138.57,
      "station_name": "MAQUINCHAO",
      "source": "SMN georef location search"
    },
    "157": {
      "id": 157,
      "name": "Comallo",
      "department": "Pilcaniyeu",
      "province": "Río Negro",
      "station_number": 87774,
      "forecast_reference_id": 169,
      "lon": -70.2681,
      "lat": -41.031,
      "distance_km": 133.23,
      "station_name": "MAQUINCHAO",
      "source": "SMN georef location search"
    },
    "158": {
      "id": 158,
      "name": "Mamuel Choique",
      "department": "Ñorquincó",
      "province": "Río Negro",
      "station_number": 87774,
      "forecast_reference_id": 169,
      "lon": -70.1377,
      "lat": -41.7618,
      "distance_km": 132.62,
      "station_name": "MAQUINCHAO",
      "source": "SMN georef location search"
    },
    "159": {
      "id": 159,
      "name": "Trahilacahue",
      "department": "Pilcaniyeu",
      "province": "Río Negro",
      "station_number": 87774,
      "forecast_reference_id": 169,
      "lon": -70.0935,
      "lat": -41.1123,
      "distance_km": 117.29,
      "station_name": "MAQUINCHAO",
      "source": "SMN georef location search"
    },
    "160": {
      "id": 160,
      "name": "Clemente Onelli",
      "department": "25 de Mayo",
      "province": "Río Negro",
      "station_number": 87774,
      "forecast_reference_id": 169,
      "lon": -70.0349,
      "lat": -41.2458,
      "distance_km": 111.35,
      "station_name": "MAQUINCHAO",
      "source": "SMN georef location search"
    },
    "161": {
      "id": 161,
      "name": "Futa Ruín",
      "department": "Ñorquincó",
      "province": "Río Negro",
      "station_number": 87774,
      "forecast_reference_id": 169,
      "lon": -70.0117,
      "lat": -41.6299,
      "distance_km": 117.21,
      "station_name": "MAQUINCHAO",
      "source": "SMN georef location search"
    },
    "162": {
      "id": 162,
      "name": "Ingeniero Jacobacci",
      "department": "25 de Mayo",
      "province": "Río Negro",
      "station_number": 87774,
      "forecast_reference_id": 169,
      "lon": -69.5441,
      "lat": -41.3312,
      "distance_km": 70.83,
      "station_name": "MAQUINCHAO",
      "source": "SMN georef location search"
    },
    "163": {
      "id": 163,
      "name": "Los Juncos",
      "department": "25 de Mayo",
      "province": "Río Negro",
      "station_number": 87774,
      "forecast_reference_id": 169,
      "lon": -69.1834,
      "lat": -41.3085,
      "distance_km": 40.6,
      "station_name": "MAQUINCHAO",
      "source": "SMN georef location search"
    },
    "164": {
      "id": 164,
      "name": "Coli Mahuida",
      "department": "25 de Mayo",
      "province": "Río Negro",
      "station_number": 87774,
      "forecast_reference_id": 169,
      "lon": -68.2157,
      "lat": -41.2275,
      "distance_km": 41.19,
      "station_name": "MAQUINCHAO",
      "source": "SMN georef location search"
    },
    "165": {
      "id": 165,
      "name": "Rincón de Gicha",
      "department": "9 de Julio",
      "province": "Río Negro",
      "station_number": 87774,
      "forecast_reference_id": 169,
      "lon": -67.7633,
      "lat": -41.1537,
      "distance_km": 79.75,
      "station_name": "MAQUINCHAO",
      "source": "SMN georef location search"
    },
    "166": {
      "id": 166,
      "name": "Prahuaniyeu",
      "department": "9 de Julio",
      "province": "Río Negro",
      "station_number": 87774,
      "forecast_reference_id": 169,
      "lon": -67.9085,
      "lat": -41.3424,
      "distance_km": 67.73,
      "station_name": "MAQUINCHAO",
      "source": "SMN georef location search"
    },
    "167": {
      "id": 167,
      "name": "La Trinchera",
      "department": "9 de Julio",
      "province": "Río Negro",
      "station_number": 87774,
      "forecast_reference_id": 169,
      "lon": -67.6612,
      "lat": -41.5581,
      "distance_km": 94.12,
      "station_name": "MAQUINCHAO",
      "source": "SMN georef location search"
    },
    "168": {
      "id": 168,
      "name": "Vaca Laufquen",
      "department": "25 de Mayo",
      "province": "Río Negro",
      "station_number": 87774,
      "forecast_reference_id": 169,
      "lon": -68.2723,
      "lat": -41.4036,
      "distance_km": 40.45,
      "station_name": "MAQUINCHAO",
      "source": "SMN georef location search"
    },
    "170": {
      "id": 170,
      "name": "El Chaiful",
      "department": "25 de Mayo",
      "province": "Río Negro",
      "station_number": 87774,
      "forecast_reference_id": 169,
      "lon": -68.9332,
      "lat": -41.5477,
      "distance_km": 38.7,
      "station_name": "MAQUINCHAO",
      "source": "SMN georef location search"
    },
    "171": {
      "id": 171,
      "name": "El Tropezón",
      "department": "25 de Mayo",
      "province": "Río Negro",
      "station_number": 87774,
      "forecast_reference_id": 169,
      "lon": -68.9178,
      "lat": -41.7693,
      "distance_km": 60.96,
      "station_name": "MAQUINCHAO",
      "source": "SMN georef location search"
    },
    "172": {
      "id": 172,
      "name": "El Cain",
      "department": "25 de Mayo",
      "province": "Río Negro",
      "station_number": 87774,
      "forecast_reference_id": 169,
      "lon": -68.1642,
      "lat": -41.6693,
      "distance_km": 65.46,
      "station_name": "MAQUINCHAO",
      "source": "SMN georef location search"
    },
    "173": {
      "id": 173,
      "name": "Barril Niyeo",
      "department": "25 de Mayo",
      "province": "Río Negro",
      "station_number": 87774,
      "forecast_reference_id": 169,
      "lon": -68.165,
      "lat": -41.8226,
      "distance_km": 78.57,
      "station_name": "MAQUINCHAO",
      "source": "SMN georef location search"
    },
    "174": {
      "id": 174,
      "name": "Rucu Luan",
      "department": "25 de Mayo",
      "province": "Río Negro",
      "station_number": 87774,
      "forecast_reference_id": 169,
      "lon": -68.855,
      "lat": -41.8492,
      "distance_km": 68.36,
      "station_name": "MAQUINCHAO",
      "source": "SMN georef location search"
    },
    "175": {
      "id": 175,
      "name": "Llama-Niyeo",
      "department": "25 de Mayo",
      "province": "Río Negro",
      "station_number": 87774,
      "forecast_reference_id": 169,
      "lon": -68.6192,
      "lat": -41.8767,
      "distance_km": 70.66,
      "station_name": "MAQUINCHAO",
      "source": "SMN georef location search"
    },
    "176": {
      "id": 176,
      "name": "Aguada de Guerra",
      "department": "25 de Mayo",
      "province": "Río Negro",
      "station_number": 87774,
      "forecast_reference_id": 169,
      "lon": -68.3831,
      "lat": -41.0667,
      "distance_km": 33.53,
      "station_name": "MAQUINCHAO",
      "source": "SMN georef location search"
    },
    "177": {
      "id": 177,
      "name": "Comicó",
      "department": "9 de Julio",
      "province": "Río Negro",
      "station_number": 87774,
      "forecast_reference_id": 169,
      "lon": -67.482,
      "lat": -41.0736,
      "distance_km": 104.5,
      "station_name": "MAQUINCHAO",
      "source": "SMN georef location search"
    },
    "178": {
      "id": 178,
      "name": "Tambelén",
      "department": "9 de Julio",
      "province": "Río Negro",
      "station_number": 87774,
      "forecast_reference_id": 169,
      "lon": -67.3668,
      "lat": -41.0991,
      "distance_km": 113.57,
      "station_name": "MAQUINCHAO",
      "source": "SMN georef location search"
    },
    "179": {
      "id": 179,
      "name": "Rincón de Camico",
      "department": "9 de Julio",
      "province": "Río Negro",
      "station_number": 87774,
      "forecast_reference_id": 169,
      "lon": -67.4546,
      "lat": -41.1369,
      "distance_km": 105.69,
      "station_name": "MAQUINCHAO",
      "source": "SMN georef location search"
    },
    "180": {
      "id": 180,
      "name": "Yaminué",
      "department": "9 de Julio",
      "province": "Río Negro",
      "station_number": 87774,
      "forecast_reference_id": 169,
      "lon": -67.2136,
      "lat": -41.0078,
      "distance_km": 128.08,
      "station_name": "MAQUINCHAO",
      "source": "SMN georef location search"
    },
    "181": {
      "id": 181,
      "name": "Laguna Méndez",
      "department": "9 de Julio",
      "province": "Río Negro",
      "station_number": 87774,
      "forecast_reference_id": 169,
      "lon": -67.2975,
      "lat": -41.0392,
      "distance_km": 120.45,
      "station_name": "MAQUINCHAO",
      "source": "SMN georef location search"
    },
    "182": {
      "id": 182,
      "name": "Rincón del Bagual",
      "department": "9 de Julio",
      "province": "Río Negro",
      "station_number": 87774,
      "forecast_reference_id": 169,
      "lon": -67.2935,
      "lat": -41.7128,
      "distance_km": 129.0,
      "station_name": "MAQUINCHAO",
      "source": "SMN georef location search"
    },
    "183": {
      "id": 183,
      "name": "Chajaijo",
      "department": "9 de Julio",
      "province": "Río Negro",
      "station_number": 87774,
      "forecast_reference_id": 169,
      "lon": -66.8964,
      "lat": -41.2501,
      "distance_km": 151.72,
      "station_name": "MAQUINCHAO",
      "source": "SMN georef location search"
    },
    "184": {
      "id": 184,
      "name": "Cona Niyeu",
      "department": "9 de Julio",
      "province": "Río Negro",
      "station_number": 87774,
      "forecast_reference_id": 169,
      "lon": -66.9322,
      "lat": -41.8635,
      "distance_km": 163.23,
      "station_name": "MAQUINCHAO",
      "source": "SMN georef location search"
    },
    "185": {
      "id": 185,
      "name": "Arroyo de La Ventana",
      "department": "Valcheta",
      "province": "Río Negro",
      "station_number": 87784,
      "forecast_reference_id": 131,
      "lon": -66.0956,
      "lat": -41.6684,
      "distance_km": 134.96,
      "station_name": "SAN ANTONIO OESTE AERO",
      "source": "SMN georef location search"
    },
    "186": {
      "id": 186,
      "name": "Arroyo Los Berros",
      "department": "Valcheta",
      "province": "Río Negro",
      "station_number": 87784,
      "forecast_reference_id": 131,
      "lon": -66.0979,
      "lat": -41.436,
      "distance_km": 117.12,
      "station_name": "SAN ANTONIO OESTE AERO",
      "source": "SMN georef location search"
    },
    "187": {
      "id": 187,
      "name": "El Cruce",
      "department": "Valcheta",
      "province": "Río Negro",
      "station_number": 87784,
      "forecast_reference_id": 131,
      "lon": -65.9603,
      "lat": -41.1575,
      "distance_km": 89.99,
      "station_name": "SAN ANTONIO OESTE AERO",
      "source": "SMN georef location search"
    },
    "188": {
      "id": 188,
      "name": "Sierra Pailemán",
      "department": "Valcheta",
      "province": "Río Negro",
      "station_number": 87784,
      "forecast_reference_id": 131,
      "lon": -65.9769,
      "lat": -41.1952,
      "distance_km": 93.3,
      "station_name": "SAN ANTONIO OESTE AERO",
      "source": "SMN georef location search"
    },
    "189": {
      "id": 189,
      "name": "Mina Gonzalito",
      "department": "San Antonio",
      "province": "Río Negro",
      "station_number": 87784,
      "forecast_reference_id": 131,
      "lon": -65.6439,
      "lat": -41.3135,
      "distance_km": 80.46,
      "station_name": "SAN ANTONIO OESTE AERO",
      "source": "SMN georef location search"
    },
    "190": {
      "id": 190,
      "name": "Campamento Sierra Grande",
      "department": "San Antonio",
      "province": "Río Negro",
      "station_number": 87784,
      "forecast_reference_id": 131,
      "lon": -65.4217,
      "lat": -41.627,
      "distance_km": 102.01,
      "station_name": "SAN ANTONIO OESTE AERO",
      "source": "SMN georef location search"
    },
    "191": {
      "id": 191,
      "name": "Sierra Vieja",
      "department": "San Antonio",
      "province": "Río Negro",
      "station_number": 87784,
      "forecast_reference_id": 131,
      "lon": -65.3822,
      "lat": -41.6041,
      "distance_km": 98.57,
      "station_name": "SAN ANTONIO OESTE AERO",
      "source": "SMN georef location search"
    },
    "192": {
      "id": 192,
      "name": "Sierra Grande",
      "department": "San Antonio",
      "province": "Río Negro",
      "station_number": 87784,
      "forecast_reference_id": 131,
      "lon": -65.3583,
      "lat": -41.6053,
      "distance_km": 98.12,
      "station_name": "SAN ANTONIO OESTE AERO",
      "source": "SMN georef location search"
    },
    "193": {
      "id": 193,
      "name": "Balneario El Salado",
      "department": "San Antonio",
      "province": "Río Negro",
      "station_number": 87784,
      "forecast_reference_id": 117,
      "lon": -65.0252,
      "lat": -41.6264,
      "distance_km": 96.54,
      "station_name": "SAN ANTONIO OESTE AERO",
      "source": "SMN georef location search"
    },
    "194": {
      "id": 194,
      "name": "Punta Colorada",
      "department": "San Antonio",
      "province": "Río Negro",
      "station_number": 87784,
      "forecast_reference_id": 117,
      "lon": -65.0234,
      "lat": -41.6987,
      "distance_km": 104.57,
      "station_name": "SAN ANTONIO OESTE AERO",
      "source": "SMN georef location search"
    },
    "195": {
      "id": 195,
      "name": "Villa Hiparsa",
      "department": "San Antonio",
      "province": "Río Negro",
      "station_number": 87784,
      "forecast_reference_id": 131,
      "lon": -65.3774,
      "lat": -41.6867,
      "distance_km": 107.24,
      "station_name": "SAN ANTONIO OESTE AERO",
      "source": "SMN georef location search"
    },
    "196": {
      "id": 196,
      "name": "Balneario El Cóndor",
      "department": "Adolfo Alsina",
      "province": "Río Negro",
      "station_number": 87791,
      "forecast_reference_id": 132,
      "lon": -62.8329,
      "lat": -41.0458,
      "distance_km": 24.99,
      "station_name": "VIEDMA AERO",
      "source": "SMN georef location search"
    },
    "197": {
      "id": 197,
      "name": "La Boca",
      "department": "Adolfo Alsina",
      "province": "Río Negro",
      "station_number": 87791,
      "forecast_reference_id": 4547,
      "lon": -62.7973,
      "lat": -41.026,
      "distance_km": 25.25,
      "station_name": "VIEDMA AERO",
      "source": "SMN georef location search"
    },
    "198": {
      "id": 198,
      "name": "Villa Los Coihues",
      "department": "Bariloche",
      "province": "Río Negro",
      "station_number": 87765,
      "forecast_reference_id": 137,
      "lon": -71.413,
      "lat": -41.1485,
      "distance_km": 20.88,
      "station_name": "BARILOCHE AERO",
      "source": "SMN georef location search"
    },
    "199": {
      "id": 199,
      "name": "Barrio El Pilar",
      "department": "Bariloche",
      "province": "Río Negro",
      "station_number": 87765,
      "forecast_reference_id": 137,
      "lon": -71.3508,
      "lat": -41.1755,
      "distance_km": 15.96,
      "station_name": "BARILOCHE AERO",
      "source": "SMN georef location search"
    },
    "200": {
      "id": 200,
      "name": "Dina Huapi",
      "department": "Pilcaniyeu",
      "province": "Río Negro",
      "station_number": 87765,
      "forecast_reference_id": 137,
      "lon": -71.1668,
      "lat": -41.0754,
      "distance_km": 8.01,
      "station_name": "BARILOCHE AERO",
      "source": "SMN georef location search"
    },
    "201": {
      "id": 201,
      "name": "Coranzuli",
      "department": "Iruyá",
      "province": "Salta",
      "station_number": 87007,
      "forecast_reference_id": 204,
      "lon": -65.211,
      "lat": -22.8732,
      "distance_km": 94.22,
      "station_name": "LA QUIACA OBSERVATORIO",
      "source": "SMN georef location search"
    },
    "202": {
      "id": 202,
      "name": "Pie de la Cuesta",
      "department": "Iruyá",
      "province": "Salta",
      "station_number": 87007,
      "forecast_reference_id": 204,
      "lon": -65.2341,
      "lat": -22.855,
      "distance_km": 91.39,
      "station_name": "LA QUIACA OBSERVATORIO",
      "source": "SMN georef location search"
    },
    "203": {
      "id": 203,
      "name": "Pueblo Viejo",
      "department": "Iruyá",
      "province": "Salta",
      "station_number": 87007,
      "forecast_reference_id": 204,
      "lon": -65.2127,
      "lat": -22.8364,
      "distance_km": 90.47,
      "station_name": "LA QUIACA OBSERVATORIO",
      "source": "SMN georef location search"
    },
    "205": {
      "id": 205,
      "name": "San Juan",
      "department": "Iruyá",
      "province": "Salta",
      "station_number": 87007,
      "forecast_reference_id": 204,
      "lon": -65.2274,
      "lat": -22.7286,
      "distance_km": 79.19,
      "station_name": "LA QUIACA OBSERVATORIO",
      "source": "SMN georef location search"
    },
    "206": {
      "id": 206,
      "name": "Palca",
      "department": "Iruyá",
      "province": "Salta",
      "station_number": 87007,
      "forecast_reference_id": 204,
      "lon": -65.2174,
      "lat": -22.5742,
      "distance_km": 65.41,
      "station_name": "LA QUIACA OBSERVATORIO",
      "source": "SMN georef location search"
    },
    "207": {
      "id": 207,
      "name": "Bacoya",
      "department": "Santa Victoria",
      "province": "Salta",
      "station_number": 87007,
      "forecast_reference_id": 204,
      "lon": -65.2264,
      "lat": -22.5391,
      "distance_km": 61.77,
      "station_name": "LA QUIACA OBSERVATORIO",
      "source": "SMN georef location search"
    },
    "208": {
      "id": 208,
      "name": "San Francisco",
      "department": "Santa Victoria",
      "province": "Salta",
      "station_number": 87007,
      "forecast_reference_id": 204,
      "lon": -65.2591,
      "lat": -22.4089,
      "distance_km": 48.84,
      "station_name": "LA QUIACA OBSERVATORIO",
      "source": "SMN georef location search"
    },
    "209": {
      "id": 209,
      "name": "Tuc Tuca",
      "department": "Santa Victoria",
      "province": "Salta",
      "station_number": 87007,
      "forecast_reference_id": 204,
      "lon": -65.2267,
      "lat": -22.4064,
      "distance_km": 51.12,
      "station_name": "LA QUIACA OBSERVATORIO",
      "source": "SMN georef location search"
    },
    "210": {
      "id": 210,
      "name": "Viscachani",
      "department": "Santa Victoria",
      "province": "Salta",
      "station_number": 87007,
      "forecast_reference_id": 204,
      "lon": -65.1367,
      "lat": -22.1393,
      "distance_km": 48.04,
      "station_name": "LA QUIACA OBSERVATORIO",
      "source": "SMN georef location search"
    },
    "211": {
      "id": 211,
      "name": "Lizoite",
      "department": "Santa Victoria",
      "province": "Salta",
      "station_number": 87007,
      "forecast_reference_id": 204,
      "lon": -65.1523,
      "lat": -22.2604,
      "distance_km": 49.41,
      "station_name": "LA QUIACA OBSERVATORIO",
      "source": "SMN georef location search"
    },
    "212": {
      "id": 212,
      "name": "Potrerillos",
      "department": "Santa Victoria",
      "province": "Salta",
      "station_number": 87007,
      "forecast_reference_id": 204,
      "lon": -65.136,
      "lat": -22.3072,
      "distance_km": 52.97,
      "station_name": "LA QUIACA OBSERVATORIO",
      "source": "SMN georef location search"
    },
    "213": {
      "id": 213,
      "name": "Hornillos",
      "department": "Santa Victoria",
      "province": "Salta",
      "station_number": 87007,
      "forecast_reference_id": 204,
      "lon": -65.1293,
      "lat": -22.3383,
      "distance_km": 55.13,
      "station_name": "LA QUIACA OBSERVATORIO",
      "source": "SMN georef location search"
    },
    "214": {
      "id": 214,
      "name": "Campo de Lajas",
      "department": "Santa Victoria",
      "province": "Salta",
      "station_number": 87007,
      "forecast_reference_id": 204,
      "lon": -65.1391,
      "lat": -22.3613,
      "distance_km": 55.51,
      "station_name": "LA QUIACA OBSERVATORIO",
      "source": "SMN georef location search"
    },
    "216": {
      "id": 216,
      "name": "Volcán",
      "department": "Santa Victoria",
      "province": "Salta",
      "station_number": 87007,
      "forecast_reference_id": 204,
      "lon": -65.1743,
      "lat": -22.3461,
      "distance_km": 51.53,
      "station_name": "LA QUIACA OBSERVATORIO",
      "source": "SMN georef location search"
    },
    "217": {
      "id": 217,
      "name": "Laguna",
      "department": "Santa Victoria",
      "province": "Salta",
      "station_number": 87007,
      "forecast_reference_id": 204,
      "lon": -65.1787,
      "lat": -22.3739,
      "distance_km": 52.83,
      "station_name": "LA QUIACA OBSERVATORIO",
      "source": "SMN georef location search"
    },
    "218": {
      "id": 218,
      "name": "Lapiara",
      "department": "Santa Victoria",
      "province": "Salta",
      "station_number": 87007,
      "forecast_reference_id": 204,
      "lon": -65.132,
      "lat": -22.4498,
      "distance_km": 61.69,
      "station_name": "LA QUIACA OBSERVATORIO",
      "source": "SMN georef location search"
    },
    "219": {
      "id": 219,
      "name": "Molino de Cuesta Azul",
      "department": "Santa Victoria",
      "province": "Salta",
      "station_number": 87007,
      "forecast_reference_id": 204,
      "lon": -65.1336,
      "lat": -22.5865,
      "distance_km": 71.96,
      "station_name": "LA QUIACA OBSERVATORIO",
      "source": "SMN georef location search"
    },
    "220": {
      "id": 220,
      "name": "Puntipampa",
      "department": "Iruyá",
      "province": "Salta",
      "station_number": 87007,
      "forecast_reference_id": 204,
      "lon": -65.1806,
      "lat": -22.6209,
      "distance_km": 71.82,
      "station_name": "LA QUIACA OBSERVATORIO",
      "source": "SMN georef location search"
    },
    "221": {
      "id": 221,
      "name": "Vizcarra",
      "department": "Iruyá",
      "province": "Salta",
      "station_number": 87007,
      "forecast_reference_id": 204,
      "lon": -65.1981,
      "lat": -22.5938,
      "distance_km": 68.34,
      "station_name": "LA QUIACA OBSERVATORIO",
      "source": "SMN georef location search"
    },
    "222": {
      "id": 222,
      "name": "San Pedro",
      "department": "Iruyá",
      "province": "Salta",
      "station_number": 87007,
      "forecast_reference_id": 204,
      "lon": -65.1235,
      "lat": -22.6384,
      "distance_km": 76.98,
      "station_name": "LA QUIACA OBSERVATORIO",
      "source": "SMN georef location search"
    },
    "223": {
      "id": 223,
      "name": "Tacupampa",
      "department": "Iruyá",
      "province": "Salta",
      "station_number": 87007,
      "forecast_reference_id": 204,
      "lon": -65.1187,
      "lat": -22.6848,
      "distance_km": 81.3,
      "station_name": "LA QUIACA OBSERVATORIO",
      "source": "SMN georef location search"
    },
    "224": {
      "id": 224,
      "name": "Chañar",
      "department": "Iruyá",
      "province": "Salta",
      "station_number": 87007,
      "forecast_reference_id": 204,
      "lon": -65.1662,
      "lat": -22.7424,
      "distance_km": 83.72,
      "station_name": "LA QUIACA OBSERVATORIO",
      "source": "SMN georef location search"
    },
    "225": {
      "id": 225,
      "name": "Casa Grande",
      "department": "Iruyá",
      "province": "Salta",
      "station_number": 87007,
      "forecast_reference_id": 204,
      "lon": -65.1659,
      "lat": -22.8,
      "distance_km": 89.19,
      "station_name": "LA QUIACA OBSERVATORIO",
      "source": "SMN georef location search"
    },
    "226": {
      "id": 226,
      "name": "Valle Concepción",
      "department": "Iruyá",
      "province": "Salta",
      "station_number": 87016,
      "forecast_reference_id": 204,
      "lon": -65.1197,
      "lat": -22.93,
      "distance_km": 84.86,
      "station_name": "ORAN AERO",
      "source": "SMN georef location search"
    },
    "227": {
      "id": 227,
      "name": "Ascayoc",
      "department": "Iruyá",
      "province": "Salta",
      "station_number": 87016,
      "forecast_reference_id": 204,
      "lon": -65.0796,
      "lat": -22.9888,
      "distance_km": 79.16,
      "station_name": "ORAN AERO",
      "source": "SMN georef location search"
    },
    "228": {
      "id": 228,
      "name": "Chiyayoc",
      "department": "Iruyá",
      "province": "Salta",
      "station_number": 87016,
      "forecast_reference_id": 204,
      "lon": -65.0944,
      "lat": -22.9031,
      "distance_km": 83.34,
      "station_name": "ORAN AERO",
      "source": "SMN georef location search"
    },
    "229": {
      "id": 229,
      "name": "Volcán Higueras",
      "department": "Iruyá",
      "province": "Salta",
      "station_number": 87016,
      "forecast_reference_id": 204,
      "lon": -65.0604,
      "lat": -22.8892,
      "distance_km": 80.61,
      "station_name": "ORAN AERO",
      "source": "SMN georef location search"
    },
    "230": {
      "id": 230,
      "name": "Chiquero Blanco",
      "department": "Iruyá",
      "province": "Salta",
      "station_number": 87016,
      "forecast_reference_id": 204,
      "lon": -65.0739,
      "lat": -22.8567,
      "distance_km": 83.27,
      "station_name": "ORAN AERO",
      "source": "SMN georef location search"
    },
    "231": {
      "id": 231,
      "name": "Higuera",
      "department": "Iruyá",
      "province": "Salta",
      "station_number": 87007,
      "forecast_reference_id": 204,
      "lon": -65.0999,
      "lat": -22.7447,
      "distance_km": 87.77,
      "station_name": "LA QUIACA OBSERVATORIO",
      "source": "SMN georef location search"
    },
    "232": {
      "id": 232,
      "name": "Cuesta Azul",
      "department": "Santa Victoria",
      "province": "Salta",
      "station_number": 87007,
      "forecast_reference_id": 204,
      "lon": -65.1174,
      "lat": -22.5404,
      "distance_km": 69.44,
      "station_name": "LA QUIACA OBSERVATORIO",
      "source": "SMN georef location search"
    },
    "233": {
      "id": 233,
      "name": "Nazareno",
      "department": "Santa Victoria",
      "province": "Salta",
      "station_number": 87007,
      "forecast_reference_id": 204,
      "lon": -65.0996,
      "lat": -22.5089,
      "distance_km": 68.44,
      "station_name": "LA QUIACA OBSERVATORIO",
      "source": "SMN georef location search"
    },
    "234": {
      "id": 234,
      "name": "Poscaya",
      "department": "Santa Victoria",
      "province": "Salta",
      "station_number": 87007,
      "forecast_reference_id": 204,
      "lon": -65.08,
      "lat": -22.4601,
      "distance_km": 66.64,
      "station_name": "LA QUIACA OBSERVATORIO",
      "source": "SMN georef location search"
    },
    "235": {
      "id": 235,
      "name": "Paltoroa",
      "department": "Santa Victoria",
      "province": "Salta",
      "station_number": 87007,
      "forecast_reference_id": 204,
      "lon": -65.079,
      "lat": -22.3779,
      "distance_km": 61.78,
      "station_name": "LA QUIACA OBSERVATORIO",
      "source": "SMN georef location search"
    },
    "236": {
      "id": 236,
      "name": "Trigo Huaico",
      "department": "Santa Victoria",
      "province": "Salta",
      "station_number": 87007,
      "forecast_reference_id": 204,
      "lon": -65.0292,
      "lat": -22.3419,
      "distance_km": 64.58,
      "station_name": "LA QUIACA OBSERVATORIO",
      "source": "SMN georef location search"
    },
    "237": {
      "id": 237,
      "name": "Puncoviscana",
      "department": "Santa Victoria",
      "province": "Salta",
      "station_number": 87007,
      "forecast_reference_id": 204,
      "lon": -65.0685,
      "lat": -22.3096,
      "distance_km": 59.45,
      "station_name": "LA QUIACA OBSERVATORIO",
      "source": "SMN georef location search"
    },
    "238": {
      "id": 238,
      "name": "Acoyte",
      "department": "Santa Victoria",
      "province": "Salta",
      "station_number": 87007,
      "forecast_reference_id": 204,
      "lon": -65.0193,
      "lat": -22.2824,
      "distance_km": 63.15,
      "station_name": "LA QUIACA OBSERVATORIO",
      "source": "SMN georef location search"
    },
    "239": {
      "id": 239,
      "name": "Rodeo Pampa",
      "department": "Santa Victoria",
      "province": "Salta",
      "station_number": 87007,
      "forecast_reference_id": 204,
      "lon": -65.078,
      "lat": -22.2452,
      "distance_km": 56.16,
      "station_name": "LA QUIACA OBSERVATORIO",
      "source": "SMN georef location search"
    },
    "240": {
      "id": 240,
      "name": "La Huerta",
      "department": "Santa Victoria",
      "province": "Salta",
      "station_number": 87007,
      "forecast_reference_id": 204,
      "lon": -65.0324,
      "lat": -22.2356,
      "distance_km": 60.42,
      "station_name": "LA QUIACA OBSERVATORIO",
      "source": "SMN georef location search"
    },
    "241": {
      "id": 241,
      "name": "Pozo Bravo",
      "department": "Santa Victoria",
      "province": "Salta",
      "station_number": 87007,
      "forecast_reference_id": 204,
      "lon": -65.0843,
      "lat": -22.1491,
      "distance_km": 53.52,
      "station_name": "LA QUIACA OBSERVATORIO",
      "source": "SMN georef location search"
    },
    "242": {
      "id": 242,
      "name": "Santa Cruz",
      "department": "Santa Victoria",
      "province": "Salta",
      "station_number": 87007,
      "forecast_reference_id": 204,
      "lon": -65.0214,
      "lat": -22.1498,
      "distance_km": 59.99,
      "station_name": "LA QUIACA OBSERVATORIO",
      "source": "SMN georef location search"
    },
    "243": {
      "id": 243,
      "name": "Mecoyita",
      "department": "Santa Victoria",
      "province": "Salta",
      "station_number": 87007,
      "forecast_reference_id": 204,
      "lon": -64.893,
      "lat": -22.1335,
      "distance_km": 73.1,
      "station_name": "LA QUIACA OBSERVATORIO",
      "source": "SMN georef location search"
    },
    "244": {
      "id": 244,
      "name": "Artigal",
      "department": "Santa Victoria",
      "province": "Salta",
      "station_number": 87007,
      "forecast_reference_id": 204,
      "lon": -64.91,
      "lat": -22.1747,
      "distance_km": 71.7,
      "station_name": "LA QUIACA OBSERVATORIO",
      "source": "SMN georef location search"
    },
    "245": {
      "id": 245,
      "name": "Pucará",
      "department": "Santa Victoria",
      "province": "Salta",
      "station_number": 87007,
      "forecast_reference_id": 204,
      "lon": -64.9617,
      "lat": -22.1858,
      "distance_km": 66.55,
      "station_name": "LA QUIACA OBSERVATORIO",
      "source": "SMN georef location search"
    },
    "246": {
      "id": 246,
      "name": "Santa Victoria",
      "department": "Santa Victoria",
      "province": "Salta",
      "station_number": 87007,
      "forecast_reference_id": 204,
      "lon": -64.9664,
      "lat": -22.2493,
      "distance_km": 67.39,
      "station_name": "LA QUIACA OBSERVATORIO",
      "source": "SMN georef location search"
    },
    "247": {
      "id": 247,
      "name": "Ciénaga",
      "department": "Santa Victoria",
      "province": "Salta",
      "station_number": 87007,
      "forecast_reference_id": 204,
      "lon": -64.9552,
      "lat": -22.2545,
      "distance_km": 68.65,
      "station_name": "LA QUIACA OBSERVATORIO",
      "source": "SMN georef location search"
    },
    "248": {
      "id": 248,
      "name": "San Felipe",
      "department": "Santa Victoria",
      "province": "Salta",
      "station_number": 87007,
      "forecast_reference_id": 204,
      "lon": -64.969,
      "lat": -22.2581,
      "distance_km": 67.37,
      "station_name": "LA QUIACA OBSERVATORIO",
      "source": "SMN georef location search"
    },
    "249": {
      "id": 249,
      "name": "Chorro",
      "department": "Santa Victoria",
      "province": "Salta",
      "station_number": 87007,
      "forecast_reference_id": 204,
      "lon": -64.9209,
      "lat": -22.2872,
      "distance_km": 73.0,
      "station_name": "LA QUIACA OBSERVATORIO",
      "source": "SMN georef location search"
    },
    "250": {
      "id": 250,
      "name": "Cañani",
      "department": "Santa Victoria",
      "province": "Salta",
      "station_number": 87007,
      "forecast_reference_id": 204,
      "lon": -64.8778,
      "lat": -22.3235,
      "distance_km": 78.43,
      "station_name": "LA QUIACA OBSERVATORIO",
      "source": "SMN georef location search"
    },
    "251": {
      "id": 251,
      "name": "Abra Delgada",
      "department": "Iruyá",
      "province": "Salta",
      "station_number": 87016,
      "forecast_reference_id": 291,
      "lon": -64.9237,
      "lat": -22.6194,
      "distance_km": 85.14,
      "station_name": "ORAN AERO",
      "source": "SMN georef location search"
    },
    "252": {
      "id": 252,
      "name": "El Abra",
      "department": "Iruyá",
      "province": "Salta",
      "station_number": 87016,
      "forecast_reference_id": 204,
      "lon": -64.9985,
      "lat": -22.7957,
      "distance_km": 79.41,
      "station_name": "ORAN AERO",
      "source": "SMN georef location search"
    },
    "254": {
      "id": 254,
      "name": "Matancillas",
      "department": "Iruyá",
      "province": "Salta",
      "station_number": 87016,
      "forecast_reference_id": 291,
      "lon": -64.9178,
      "lat": -22.821,
      "distance_km": 70.86,
      "station_name": "ORAN AERO",
      "source": "SMN georef location search"
    },
    "255": {
      "id": 255,
      "name": "Baritú",
      "department": "Santa Victoria",
      "province": "Salta",
      "station_number": 87016,
      "forecast_reference_id": 291,
      "lon": -64.7767,
      "lat": -22.4969,
      "distance_km": 86.18,
      "station_name": "ORAN AERO",
      "source": "SMN georef location search"
    },
    "256": {
      "id": 256,
      "name": "Pueblo Viejo",
      "department": "Santa Victoria",
      "province": "Salta",
      "station_number": 87016,
      "forecast_reference_id": 291,
      "lon": -64.8299,
      "lat": -22.3952,
      "distance_km": 98.63,
      "station_name": "ORAN AERO",
      "source": "SMN georef location search"
    },
    "257": {
      "id": 257,
      "name": "Santa Rosita",
      "department": "Santa Victoria",
      "province": "Salta",
      "station_number": 87007,
      "forecast_reference_id": 204,
      "lon": -64.8466,
      "lat": -22.1816,
      "distance_km": 78.28,
      "station_name": "LA QUIACA OBSERVATORIO",
      "source": "SMN georef location search"
    },
    "258": {
      "id": 258,
      "name": "Isla de Cañas",
      "department": "Iruyá",
      "province": "Salta",
      "station_number": 87016,
      "forecast_reference_id": 291,
      "lon": -64.6668,
      "lat": -22.8963,
      "distance_km": 44.99,
      "station_name": "ORAN AERO",
      "source": "SMN georef location search"
    },
    "259": {
      "id": 259,
      "name": "San Carlos",
      "department": "Iruyá",
      "province": "Salta",
      "station_number": 87016,
      "forecast_reference_id": 291,
      "lon": -64.6677,
      "lat": -22.8667,
      "distance_km": 47.21,
      "station_name": "ORAN AERO",
      "source": "SMN georef location search"
    },
    "260": {
      "id": 260,
      "name": "Lipeo",
      "department": "Santa Victoria",
      "province": "Salta",
      "station_number": 87016,
      "forecast_reference_id": 291,
      "lon": -64.7332,
      "lat": -22.4342,
      "distance_km": 89.98,
      "station_name": "ORAN AERO",
      "source": "SMN georef location search"
    },
    "261": {
      "id": 261,
      "name": "El Arazoy",
      "department": "Santa Victoria",
      "province": "Salta",
      "station_number": 87016,
      "forecast_reference_id": 291,
      "lon": -64.7201,
      "lat": -22.3055,
      "distance_km": 102.3,
      "station_name": "ORAN AERO",
      "source": "SMN georef location search"
    },
    "262": {
      "id": 262,
      "name": "Toldos",
      "department": "Santa Victoria",
      "province": "Salta",
      "station_number": 87016,
      "forecast_reference_id": 291,
      "lon": -64.7019,
      "lat": -22.2802,
      "distance_km": 104.18,
      "station_name": "ORAN AERO",
      "source": "SMN georef location search"
    },
    "263": {
      "id": 263,
      "name": "La Misión",
      "department": "Santa Victoria",
      "province": "Salta",
      "station_number": 87022,
      "forecast_reference_id": 291,
      "lon": -64.6953,
      "lat": -22.2267,
      "distance_km": 102.11,
      "station_name": "TARTAGAL AERO",
      "source": "SMN georef location search"
    },
    "264": {
      "id": 264,
      "name": "Condado",
      "department": "Santa Victoria",
      "province": "Salta",
      "station_number": 87007,
      "forecast_reference_id": 204,
      "lon": -64.6806,
      "lat": -22.1942,
      "distance_km": 95.45,
      "station_name": "LA QUIACA OBSERVATORIO",
      "source": "SMN georef location search"
    },
    "265": {
      "id": 265,
      "name": "Papachacra",
      "department": "Santa Victoria",
      "province": "Salta",
      "station_number": 87007,
      "forecast_reference_id": 204,
      "lon": -64.9329,
      "lat": -22.2632,
      "distance_km": 71.11,
      "station_name": "LA QUIACA OBSERVATORIO",
      "source": "SMN georef location search"
    },
    "266": {
      "id": 266,
      "name": "San Isidro",
      "department": "Iruyá",
      "province": "Salta",
      "station_number": 87007,
      "forecast_reference_id": 204,
      "lon": -65.2338,
      "lat": -22.7554,
      "distance_km": 81.49,
      "station_name": "LA QUIACA OBSERVATORIO",
      "source": "SMN georef location search"
    },
    "267": {
      "id": 267,
      "name": "El Candado Chico",
      "department": "Orán",
      "province": "Salta",
      "station_number": 87016,
      "forecast_reference_id": 291,
      "lon": -64.441,
      "lat": -22.6513,
      "distance_km": 56.94,
      "station_name": "ORAN AERO",
      "source": "SMN georef location search"
    },
    "268": {
      "id": 268,
      "name": "Campamento Río Pescado",
      "department": "Orán",
      "province": "Salta",
      "station_number": 87016,
      "forecast_reference_id": 291,
      "lon": -64.441,
      "lat": -22.9309,
      "distance_km": 27.35,
      "station_name": "ORAN AERO",
      "source": "SMN georef location search"
    },
    "269": {
      "id": 269,
      "name": "Abra Grande",
      "department": "Orán",
      "province": "Salta",
      "station_number": 87016,
      "forecast_reference_id": 291,
      "lon": -64.4165,
      "lat": -22.9643,
      "distance_km": 22.95,
      "station_name": "ORAN AERO",
      "source": "SMN georef location search"
    },
    "270": {
      "id": 270,
      "name": "Río Pescado",
      "department": "Orán",
      "province": "Salta",
      "station_number": 87016,
      "forecast_reference_id": 291,
      "lon": -64.3651,
      "lat": -22.9601,
      "distance_km": 21.88,
      "station_name": "ORAN AERO",
      "source": "SMN georef location search"
    },
    "271": {
      "id": 271,
      "name": "El Chuschal",
      "department": "General José de San Martín",
      "province": "Salta",
      "station_number": 87016,
      "forecast_reference_id": 291,
      "lon": -64.2863,
      "lat": -22.875,
      "distance_km": 31.27,
      "station_name": "ORAN AERO",
      "source": "SMN georef location search"
    },
    "272": {
      "id": 272,
      "name": "Peña Colorada",
      "department": "Orán",
      "province": "Salta",
      "station_number": 87016,
      "forecast_reference_id": 291,
      "lon": -64.3574,
      "lat": -22.8007,
      "distance_km": 39.32,
      "station_name": "ORAN AERO",
      "source": "SMN georef location search"
    },
    "273": {
      "id": 273,
      "name": "Aguas Blancas",
      "department": "Orán",
      "province": "Salta",
      "station_number": 87016,
      "forecast_reference_id": 291,
      "lon": -64.3507,
      "lat": -22.7434,
      "distance_km": 45.61,
      "station_name": "ORAN AERO",
      "source": "SMN georef location search"
    },
    "274": {
      "id": 274,
      "name": "San Telmo",
      "department": "General José de San Martín",
      "province": "Salta",
      "station_number": 87022,
      "forecast_reference_id": 291,
      "lon": -64.2227,
      "lat": -22.5722,
      "distance_km": 44.1,
      "station_name": "TARTAGAL AERO",
      "source": "SMN georef location search"
    },
    "275": {
      "id": 275,
      "name": "Río Seco",
      "department": "General José de San Martín",
      "province": "Salta",
      "station_number": 87016,
      "forecast_reference_id": 291,
      "lon": -64.1362,
      "lat": -22.8591,
      "distance_km": 38.19,
      "station_name": "ORAN AERO",
      "source": "SMN georef location search"
    },
    "276": {
      "id": 276,
      "name": "Pocoy",
      "department": "General José de San Martín",
      "province": "Salta",
      "station_number": 87022,
      "forecast_reference_id": 291,
      "lon": -64.0212,
      "lat": -22.7358,
      "distance_km": 26.6,
      "station_name": "TARTAGAL AERO",
      "source": "SMN georef location search"
    },
    "277": {
      "id": 277,
      "name": "Campo Largo",
      "department": "General José de San Martín",
      "province": "Salta",
      "station_number": 87022,
      "forecast_reference_id": 291,
      "lon": -63.9408,
      "lat": -22.0441,
      "distance_km": 65.11,
      "station_name": "TARTAGAL AERO",
      "source": "SMN georef location search"
    },
    "278": {
      "id": 278,
      "name": "Macueta",
      "department": "General José de San Martín",
      "province": "Salta",
      "station_number": 87022,
      "forecast_reference_id": 291,
      "lon": -63.8937,
      "lat": -22.0585,
      "distance_km": 62.6,
      "station_name": "TARTAGAL AERO",
      "source": "SMN georef location search"
    },
    "279": {
      "id": 279,
      "name": "San Francisco",
      "department": "General José de San Martín",
      "province": "Salta",
      "station_number": 87022,
      "forecast_reference_id": 291,
      "lon": -63.8935,
      "lat": -22.0778,
      "distance_km": 60.49,
      "station_name": "TARTAGAL AERO",
      "source": "SMN georef location search"
    },
    "280": {
      "id": 280,
      "name": "Acambuco",
      "department": "General José de San Martín",
      "province": "Salta",
      "station_number": 87022,
      "forecast_reference_id": 291,
      "lon": -63.9197,
      "lat": -22.1493,
      "distance_km": 53.28,
      "station_name": "TARTAGAL AERO",
      "source": "SMN georef location search"
    },
    "281": {
      "id": 281,
      "name": "El Chorro",
      "department": "General José de San Martín",
      "province": "Salta",
      "station_number": 87022,
      "forecast_reference_id": 291,
      "lon": -63.9095,
      "lat": -22.2058,
      "distance_km": 46.95,
      "station_name": "TARTAGAL AERO",
      "source": "SMN georef location search"
    },
    "282": {
      "id": 282,
      "name": "Las Latas",
      "department": "General José de San Martín",
      "province": "Salta",
      "station_number": 87022,
      "forecast_reference_id": 291,
      "lon": -63.9163,
      "lat": -22.2549,
      "distance_km": 41.91,
      "station_name": "TARTAGAL AERO",
      "source": "SMN georef location search"
    },
    "283": {
      "id": 283,
      "name": "Aguay",
      "department": "General José de San Martín",
      "province": "Salta",
      "station_number": 87022,
      "forecast_reference_id": 291,
      "lon": -63.9617,
      "lat": -22.5402,
      "distance_km": 18.98,
      "station_name": "TARTAGAL AERO",
      "source": "SMN georef location search"
    },
    "284": {
      "id": 284,
      "name": "General Ballivian",
      "department": "General José de San Martín",
      "province": "Salta",
      "station_number": 87022,
      "forecast_reference_id": 291,
      "lon": -63.8611,
      "lat": -22.9337,
      "distance_km": 35.74,
      "station_name": "TARTAGAL AERO",
      "source": "SMN georef location search"
    },
    "286": {
      "id": 286,
      "name": "El Quebracho",
      "department": "General José de San Martín",
      "province": "Salta",
      "station_number": 87022,
      "forecast_reference_id": 291,
      "lon": -63.7109,
      "lat": -22.8703,
      "distance_km": 29.44,
      "station_name": "TARTAGAL AERO",
      "source": "SMN georef location search"
    },
    "287": {
      "id": 287,
      "name": "Antonio Quijarro",
      "department": "General José de San Martín",
      "province": "Salta",
      "station_number": 87022,
      "forecast_reference_id": 291,
      "lon": -63.8349,
      "lat": -22.8259,
      "distance_km": 23.51,
      "station_name": "TARTAGAL AERO",
      "source": "SMN georef location search"
    },
    "288": {
      "id": 288,
      "name": "Obraje Echezortu",
      "department": "General José de San Martín",
      "province": "Salta",
      "station_number": 87022,
      "forecast_reference_id": 291,
      "lon": -63.7867,
      "lat": -22.7501,
      "distance_km": 14.82,
      "station_name": "TARTAGAL AERO",
      "source": "SMN georef location search"
    },
    "289": {
      "id": 289,
      "name": "Coronel Cornejo",
      "department": "General José de San Martín",
      "province": "Salta",
      "station_number": 87022,
      "forecast_reference_id": 291,
      "lon": -63.8287,
      "lat": -22.7404,
      "distance_km": 14.1,
      "station_name": "TARTAGAL AERO",
      "source": "SMN georef location search"
    },
    "290": {
      "id": 290,
      "name": "Campamento Vespucio",
      "department": "General José de San Martín",
      "province": "Salta",
      "station_number": 87022,
      "forecast_reference_id": 291,
      "lon": -63.8566,
      "lat": -22.5861,
      "distance_km": 7.04,
      "station_name": "TARTAGAL AERO",
      "source": "SMN georef location search"
    },
    "291": {
      "id": 291,
      "name": "Tartagal",
      "department": "General José de San Martín",
      "province": "Salta",
      "station_number": 87022,
      "forecast_reference_id": 291,
      "lon": -63.7992,
      "lat": -22.5115,
      "distance_km": 11.64,
      "station_name": "TARTAGAL AERO",
      "source": "SMN georef location search"
    },
    "292": {
      "id": 292,
      "name": "Yariguarenda",
      "department": "General José de San Martín",
      "province": "Salta",
      "station_number": 87022,
      "forecast_reference_id": 291,
      "lon": -63.7848,
      "lat": -22.4062,
      "distance_km": 23.33,
      "station_name": "TARTAGAL AERO",
      "source": "SMN georef location search"
    },
    "293": {
      "id": 293,
      "name": "El Oculto",
      "department": "General José de San Martín",
      "province": "Salta",
      "station_number": 87022,
      "forecast_reference_id": 291,
      "lon": -63.8033,
      "lat": -22.0341,
      "distance_km": 64.5,
      "station_name": "TARTAGAL AERO",
      "source": "SMN georef location search"
    },
    "294": {
      "id": 294,
      "name": "Batallano",
      "department": "General José de San Martín",
      "province": "Salta",
      "station_number": 87022,
      "forecast_reference_id": 291,
      "lon": -63.7979,
      "lat": -22.0242,
      "distance_km": 65.6,
      "station_name": "TARTAGAL AERO",
      "source": "SMN georef location search"
    },