{
  "schema_version": 1,
  "source": "SMN georef location search",
  "endpoint": "https://ws1.smn.gob.ar/v1/georef/location/search",
  "generated_at": "2026-06-29T05:32:27.049640+00:00",
  "count": 1100,
  "locations": {
    "16": {
      "id": 16,
      "name": "Isla Diez",
      "department": "General Roca",
      "province": "Río Negro",
      "station_number": 87719,
      "forecast_reference_id": 19,
      "lon": -67.9223,
      "lat": -38.9938,
      "distance_km": 7.6,
      "station_name": "CIPOLLETTI",
      "source": "SMN georef location search"
    },
    "33": {
      "id": 33,
      "name": "Bajo Hondo",
      "department": "Avellaneda",
      "province": "Río Negro",
      "station_number": 87736,
      "forecast_reference_id": 30,
      "lon": -65.7864,
      "lat": -39.0512,
      "distance_km": 147.3,
      "station_name": "RIO COLORADO",
      "source": "SMN georef location search"
    },
    "90": {
      "id": 90,
      "name": "Chasico",
      "department": "El Cuy",
      "province": "Río Negro",
      "station_number": 87774,
      "forecast_reference_id": 169,
      "lon": -68.973,
      "lat": -40.2967,
      "distance_km": 107.57,
      "station_name": "MAQUINCHAO",
      "source": "SMN georef location search"
    },
    "141": {
      "id": 141,
      "name": "Reserva Cañumil",
      "department": "Ñorquincó",
      "province": "Río Negro",
      "station_number": 87774,
      "forecast_reference_id": 169,
      "lon": -70.6917,
      "lat": -41.6063,
      "distance_km": 170.76,
      "station_name": "MAQUINCHAO",
      "source": "SMN georef location search"
    },
    "179": {
      "id": 179,
      "name": "Rincón de Camico",
      "department": "9 de Julio",
      "province": "Río Negro",
      "station_number": 87774,
      "forecast_reference_id": 169,
      "lon": -67.4546,
      "lat": -41.1369,
      "distance_km": 105.69,
      "station_name": "MAQUINCHAO",
      "source": "SMN georef location search"
    },
    "205": {
      "id": 205,
      "name": "San Juan",
      "department": "Iruyá",
      "province": "Salta",
      "station_number": 87007,
      "forecast_reference_id": 204,
      "lon": -65.2274,
      "lat": -22.7286,
      "distance_km": 79.19,
      "station_name": "LA QUIACA OBSERVATORIO",
      "source": "SMN georef location search"
    },
    "222": {
      "id": 222,
      "name": "San Pedro",
      "department": "Iruyá",
      "province": "Salta",
      "station_number": 87007,
      "forecast_reference_id": 204,
      "lon": -65.1235,
      "lat": -22.6384,
      "distance_km": 76.98,
      "station_name": "LA QUIACA OBSERVATORIO",
      "source": "SMN georef location search"
    },
    "258": {
      "id": 258,
      "name": "Isla de Cañas",
      "department": "Iruyá",
      "province": "Salta",
      "station_number": 87016,
      "forecast_reference_id": 291,
      "lon": -64.6668,
      "lat": -22.8963,
      "distance_km": 44.99,
      "station_name": "ORAN AERO",
      "source": "SMN georef location search"
    },
    "297": {
      "id": 297,
      "name": "Arenales",
      "department": "General José de San Martín",
      "province": "Salta",
      "station_number": 87022,
      "forecast_reference_id": 291,
      "lon": -63.6986,
      "lat": -22.069,
      "distance_km": 61.47,
      "station_name": "TARTAGAL AERO",
      "source": "SMN georef location search"
    },
    "299": {
      "id": 299,
      "name": "Playa Ancha",
      "department": "General José de San Martín",
      "province": "Salta",
      "station_number": 87022,
      "forecast_reference_id": 291,
      "lon": -63.6808,
      "lat": -22.1017,
      "distance_km": 58.25,
      "station_name": "TARTAGAL AERO",
      "source": "SMN georef location search"
    },
    "313": {
      "id": 313,
      "name": "San José",
      "department": "General José de San Martín",
      "province": "Salta",
      "station_number": 87022,
      "forecast_reference_id": 291,
      "lon": -63.679,
      "lat": -22.9203,
      "distance_km": 35.73,
      "station_name": "TARTAGAL AERO",
      "source": "SMN georef location search"
    },
    "330": {
      "id": 330,
      "name": "El Porvenir",
      "department": "General José de San Martín",
      "province": "Salta",
      "station_number": 87022,
      "forecast_reference_id": 291,
      "lon": -63.4689,
      "lat": -22.8507,
      "distance_km": 42.48,
      "station_name": "TARTAGAL AERO",
      "source": "SMN georef location search"
    },
    "332": {
      "id": 332,
      "name": "El Retiro",
      "department": "General José de San Martín",
      "province": "Salta",
      "station_number": 87022,
      "forecast_reference_id": 291,
      "lon": -63.4204,
      "lat": -22.9242,
      "distance_km": 51.5,
      "station_name": "TARTAGAL AERO",
      "source": "SMN georef location search"
    },
    "338": {
      "id": 338,
      "name": "El Zorro",
      "department": "General José de San Martín",
      "province": "Salta",
      "station_number": 87022,
      "forecast_reference_id": 291,
      "lon": -63.2438,
      "lat": -22.9874,
      "distance_km": 70.05,
      "station_name": "TARTAGAL AERO",
      "source": "SMN georef location search"
    },
    "355": {
      "id": 355,
      "name": "Santa María",
      "department": "Orán",
      "province": "Salta",
      "station_number": 87016,
      "forecast_reference_id": 291,
      "lon": -64.4879,
      "lat": -23.2699,
      "distance_km": 20.74,
      "station_name": "ORAN AERO",
      "source": "SMN georef location search"
    },
    "369": {
      "id": 369,
      "name": "Vinalito",
      "department": "Orán",
      "province": "Salta",
      "station_number": 87016,
      "forecast_reference_id": 291,
      "lon": -64.1446,
      "lat": -23.4392,
      "distance_km": 36.68,
      "station_name": "ORAN AERO",
      "source": "SMN georef location search"
    },
    "376": {
      "id": 376,
      "name": "La Estrella",
      "department": "Orán",
      "province": "Salta",
      "station_number": 87016,
      "forecast_reference_id": 291,
      "lon": -64.0768,
      "lat": -23.8254,
      "distance_km": 78.59,
      "station_name": "ORAN AERO",
      "source": "SMN georef location search"
    },
    "377": {
      "id": 377,
      "name": "Martínez del Tineo",
      "department": "Orán",
      "province": "Salta",
      "station_number": 87016,
      "forecast_reference_id": 291,
      "lon": -64.0583,
      "lat": -23.9035,
      "distance_km": 87.39,
      "station_name": "ORAN AERO",
      "source": "SMN georef location search"
    },
    "405": {
      "id": 405,
      "name": "San Fermin",
      "department": "Rivadavia",
      "province": "Salta",
      "station_number": 87065,
      "forecast_reference_id": 794,
      "lon": -63.316,
      "lat": -23.9641,
      "distance_km": 50.07,
      "station_name": "RIVADAVIA",
      "source": "SMN georef location search"
    },
    "407": {
      "id": 407,
      "name": "La Estrella",
      "department": "Rivadavia",
      "province": "Salta",
      "station_number": 87065,
      "forecast_reference_id": 794,
      "lon": -63.2328,
      "lat": -23.9247,
      "distance_km": 45.53,
      "station_name": "RIVADAVIA",
      "source": "SMN georef location search"
    },
    "422": {
      "id": 422,
      "name": "La Unión",
      "department": "Rivadavia",
      "province": "Salta",
      "station_number": 87065,
      "forecast_reference_id": 794,
      "lon": -63.1932,
      "lat": -23.8968,
      "distance_km": 44.65,
      "station_name": "RIVADAVIA",
      "source": "SMN georef location search"
    },
    "423": {
      "id": 423,
      "name": "La Toma",
      "department": "Rivadavia",
      "province": "Salta",
      "station_number": 87065,
      "forecast_reference_id": 794,
      "lon": -63.1583,
      "lat": -23.7447,
      "distance_km": 56.09,
      "station_name": "RIVADAVIA",
      "source": "SMN georef location search"
    },
    "467": {
      "id": 467,
      "name": "Los Pinos",
      "department": "Cerrillos",
      "province": "Salta",
      "station_number": 87047,
      "forecast_reference_id": 454,
      "lon": -65.4243,
      "lat": -24.9266,
      "distance_km": 10.49,
      "station_name": "SALTA AERO",
      "source": "SMN georef location search"
    },
    "471": {
      "id": 471,
      "name": "San Agustín",
      "department": "Cerrillos",
      "province": "Salta",
      "station_number": 87047,
      "forecast_reference_id": 454,
      "lon": -65.4387,
      "lat": -24.998,
      "distance_km": 17.43,
      "station_name": "SALTA AERO",
      "source": "SMN georef location search"
    },
    "515": {
      "id": 515,
      "name": "El Porvenir",
      "department": "Rosario de Lerma",
      "province": "Salta",
      "station_number": 87047,
      "forecast_reference_id": 454,
      "lon": -65.5598,
      "lat": -24.9126,
      "distance_km": 11.37,
      "station_name": "SALTA AERO",
      "source": "SMN georef location search"
    },
    "530": {
      "id": 530,
      "name": "El Dorado",
      "department": "Anta",
      "province": "Salta",
      "station_number": 87050,
      "forecast_reference_id": 1018,
      "lon": -64.1554,
      "lat": -24.5273,
      "distance_km": 137.86,
      "station_name": "METAN",
      "source": "SMN georef location search"
    },
    "546": {
      "id": 546,
      "name": "San Vicente",
      "department": "Anta",
      "province": "Salta",
      "station_number": 87050,
      "forecast_reference_id": 1018,
      "lon": -63.8741,
      "lat": -24.4058,
      "distance_km": 166.32,
      "station_name": "METAN",
      "source": "SMN georef location search"
    },
    "552": {
      "id": 552,
      "name": "San Ignacio",
      "department": "Anta",
      "province": "Salta",
      "station_number": 87050,
      "forecast_reference_id": 1018,
      "lon": -63.4099,
      "lat": -24.6349,
      "distance_km": 185.93,
      "station_name": "METAN",
      "source": "SMN georef location search"
    },
    "583": {
      "id": 583,
      "name": "Magdalena",
      "department": "Rivadavia",
      "province": "Salta",
      "station_number": 87065,
      "forecast_reference_id": 794,
      "lon": -62.9381,
      "lat": -22.0095,
      "distance_km": 241.02,
      "station_name": "RIVADAVIA",
      "source": "SMN georef location search"
    },
    "714": {
      "id": 714,
      "name": "Santa Lucía",
      "department": "Rivadavia",
      "province": "Salta",
      "station_number": 87065,
      "forecast_reference_id": 794,
      "lon": -62.6625,
      "lat": -23.1169,
      "distance_km": 120.52,
      "station_name": "RIVADAVIA",
      "source": "SMN georef location search"
    },
    "721": {
      "id": 721,
      "name": "El Recreo",
      "department": "Rivadavia",
      "province": "Salta",
      "station_number": 87065,
      "forecast_reference_id": 794,
      "lon": -62.7368,
      "lat": -23.4614,
      "distance_km": 81.62,
      "station_name": "RIVADAVIA",
      "source": "SMN georef location search"
    },
    "763": {
      "id": 763,
      "name": "Planta Mina La Poma",
      "department": "Los Andes",
      "province": "Salta",
      "station_number": 87047,
      "forecast_reference_id": 765,
      "lon": -66.4428,
      "lat": -24.232,
      "distance_km": 119.17,
      "station_name": "SALTA AERO",
      "source": "SMN georef location search"
    },
    "766": {
      "id": 766,
      "name": "Pueblo Nuevo",
      "department": "Los Andes",
      "province": "Salta",
      "station_number": 87047,
      "forecast_reference_id": 765,
      "lon": -66.3169,
      "lat": -24.1974,
      "distance_km": 111.36,
      "station_name": "SALTA AERO",
      "source": "SMN georef location search"
    },
    "802": {
      "id": 802,
      "name": "Martín García",
      "department": "Rivadavia",
      "province": "Salta",
      "station_number": 87065,
      "forecast_reference_id": 794,
      "lon": -62.7763,
      "lat": -24.2171,
      "distance_km": 11.75,
      "station_name": "RIVADAVIA",
      "source": "SMN georef location search"
    },
    "823": {
      "id": 823,
      "name": "Santa María",
      "department": "Rivadavia",
      "province": "Salta",
      "station_number": 87065,
      "forecast_reference_id": 794,
      "lon": -62.4483,
      "lat": -24.3092,
      "distance_km": 46.58,
      "station_name": "RIVADAVIA",
      "source": "SMN georef location search"
    },
    "828": {
      "id": 828,
      "name": "San Agustín",
      "department": "Rivadavia",
      "province": "Salta",
      "station_number": 87065,
      "forecast_reference_id": 794,
      "lon": -62.4634,
      "lat": -24.0285,
      "distance_km": 46.4,
      "station_name": "RIVADAVIA",
      "source": "SMN georef location search"
    },
    "838": {
      "id": 838,
      "name": "El Porvenir",
      "department": "Rivadavia",
      "province": "Salta",
      "station_number": 87065,
      "forecast_reference_id": 794,
      "lon": -62.3887,
      "lat": -24.3711,
      "distance_km": 54.58,
      "station_name": "RIVADAVIA",
      "source": "SMN georef location search"
    },
    "869": {
      "id": 869,
      "name": "Santa Elena",
      "department": "San Carlos",
      "province": "Salta",
      "station_number": 87047,
      "forecast_reference_id": 896,
      "lon": -66.169,
      "lat": -25.6484,
      "distance_km": 113.19,
      "station_name": "SALTA AERO",
      "source": "SMN georef location search"
    },
    "929": {
      "id": 929,
      "name": "San Miguel",
      "department": "Cerrillos",
      "province": "Salta",
      "station_number": 87047,
      "forecast_reference_id": 454,
      "lon": -65.4052,
      "lat": -25.0802,
      "distance_km": 27.08,
      "station_name": "SALTA AERO",
      "source": "SMN georef location search"
    },
    "959": {
      "id": 959,
      "name": "Viñaco",
      "department": "Chicoana",
      "province": "Salta",
      "station_number": 87047,
      "forecast_reference_id": 454,
      "lon": -65.4981,
      "lat": -25.1713,
      "distance_km": 36.29,
      "station_name": "SALTA AERO",
      "source": "SMN georef location search"
    },
    "965": {
      "id": 965,
      "name": "Santo Domingo",
      "department": "Anta",
      "province": "Salta",
      "station_number": 87050,
      "forecast_reference_id": 1018,
      "lon": -64.88,
      "lat": -25.2194,
      "distance_km": 35.05,
      "station_name": "METAN",
      "source": "SMN georef location search"
    },
    "1014": {
      "id": 1014,
      "name": "El Retiro",
      "department": "Metán",
      "province": "Salta",
      "station_number": 87050,
      "forecast_reference_id": 1018,
      "lon": -64.8536,
      "lat": -25.4931,
      "distance_km": 12.49,
      "station_name": "METAN",
      "source": "SMN georef location search"
    },
    "1069": {
      "id": 1069,
      "name": "Santa María",
      "department": "Metán",
      "province": "Salta",
      "station_number": 87050,
      "forecast_reference_id": 1018,
      "lon": -64.8505,
      "lat": -25.6016,
      "distance_km": 14.99,
      "station_name": "METAN",
      "source": "SMN georef location search"
    },
    "1099": {
      "id": 1099,
      "name": "La Tabaquería",
      "department": "Rosario de La Frontera",
      "province": "Salta",
      "station_number": 87050,
      "forecast_reference_id": 1018,
      "lon": -65.0252,
      "lat": -25.7449,
      "distance_km": 25.0,
      "station_name": "METAN",
      "source": "SMN georef location search"
    },
    "1114": {
      "id": 1114,
      "name": "Vinalito",
      "department": "Rosario de La Frontera",
      "province": "Salta",
      "station_number": 87050,
      "forecast_reference_id": 1018,
      "lon": -64.8265,
      "lat": -25.7915,
      "distance_km": 33.05,
      "station_name": "METAN",
      "source": "SMN georef location search"
    },
    "1120": {
      "id": 1120,
      "name": "El Porvenir",
      "department": "Rosario de La Frontera",
      "province": "Salta",
      "station_number": 87050,
      "forecast_reference_id": 1018,
      "lon": -64.9861,
      "lat": -25.8141,
      "distance_km": 32.13,
      "station_name": "METAN",
      "source": "SMN georef location search"
    },
    "1164": {
      "id": 1164,
      "name": "San Esteban",
      "department": "Rosario de La Frontera",
      "province": "Salta",
      "station_number": 87050,
      "forecast_reference_id": 1018,
      "lon": -65.0046,
      "lat": -25.9944,
      "distance_km": 52.18,
      "station_name": "METAN",
      "source": "SMN georef location search"
    },
    "1189": {
      "id": 1189,
      "name": "Santa María",
      "department": "Rosario de La Frontera",
      "province": "Salta",
      "station_number": 87050,
      "forecast_reference_id": 1018,
      "lon": -64.4962,
      "lat": -25.7911,
      "distance_km": 56.26,
      "station_name": "METAN",
      "source": "SMN georef location search"
    },
    "1229": {
      "id": 1229,
      "name": "San Pedro",
      "department": "Candelaria",
      "province": "Salta",
      "station_number": 87050,
      "forecast_reference_id": 1018,
      "lon": -65.1235,
      "lat": -26.1158,
      "distance_km": 67.25,
      "station_name": "METAN",
      "source": "SMN georef location search"
    },
    "1232": {
      "id": 1232,
      "name": "San Antonio",
      "department": "Candelaria",
      "province": "Salta",
      "station_number": 87050,
      "forecast_reference_id": 1018,
      "lon": -64.9543,
      "lat": -26.1923,
      "distance_km": 74.03,
      "station_name": "METAN",
      "source": "SMN georef location search"
    },
    "1275": {
      "id": 1275,
      "name": "El Retiro",
      "department": "Iglesia",
      "province": "San Juan",
      "station_number": 87305,
      "forecast_reference_id": 1298,
      "lon": -69.259,
      "lat": -30.2925,
      "distance_km": 50.53,
      "station_name": "JACHAL",
      "source": "SMN georef location search"
    },
    "1307": {
      "id": 1307,
      "name": "Rincón Chico",
      "department": "Valle Fértil",
      "province": "San Juan",
      "station_number": 87305,
      "forecast_reference_id": 1449,
      "lon": -67.7192,
      "lat": -30.2891,
      "distance_km": 98.36,
      "station_name": "JACHAL",
      "source": "SMN georef location search"
    },
    "1330": {
      "id": 1330,
      "name": "La Toma",
      "department": "Jachal",
      "province": "San Juan",
      "station_number": 87305,
      "forecast_reference_id": 1285,
      "lon": -68.376,
      "lat": -30.6855,
      "distance_km": 61.42,
      "station_name": "JACHAL",
      "source": "SMN georef location search"
    },
    "1334": {
      "id": 1334,
      "name": "Santa Lucía",
      "department": "Santa Lucía",
      "province": "San Juan",
      "station_number": 87311,
      "forecast_reference_id": 1425,
      "lon": -68.469,
      "lat": -31.5362,
      "distance_km": 6.14,
      "station_name": "SAN JUAN AERO",
      "source": "SMN georef location search"
    },
    "1341": {
      "id": 1341,
      "name": "El Rincón",
      "department": "Albardón",
      "province": "San Juan",
      "station_number": 87311,
      "forecast_reference_id": 1425,
      "lon": -68.5645,
      "lat": -31.4157,
      "distance_km": 22.2,
      "station_name": "SAN JUAN AERO",
      "source": "SMN georef location search"
    },
    "1364": {
      "id": 1364,
      "name": "Colón",
      "department": "Calingasta",
      "province": "San Juan",
      "station_number": 87311,
      "forecast_reference_id": 1369,
      "lon": -69.4065,
      "lat": -31.4104,
      "distance_km": 95.26,
      "station_name": "SAN JUAN AERO",
      "source": "SMN georef location search"
    },
    "1425": {
      "id": 1425,
      "name": "San Juan",
      "department": "Capital",
      "province": "San Juan",
      "station_number": 87311,
      "forecast_reference_id": 1425,
      "lon": -68.5112,
      "lat": -31.5189,
      "distance_km": 10.45,
      "station_name": "SAN JUAN AERO",
      "source": "SMN georef location search"
    },
    "1452": {
      "id": 1452,
      "name": "El Rincón",
      "department": "Caucete",
      "province": "San Juan",
      "station_number": 87311,
      "forecast_reference_id": 1449,
      "lon": -68.3234,
      "lat": -31.6496,
      "distance_km": 12.54,
      "station_name": "SAN JUAN AERO",
      "source": "SMN georef location search"
    },
    "1497": {
      "id": 1497,
      "name": "Martín de Loyola",
      "department": "Gobernador Dupuy",
      "province": "San Luis",
      "station_number": 87616,
      "forecast_reference_id": 1775,
      "lon": -66.3592,
      "lat": -35.7112,
      "distance_km": 100.48,
      "station_name": "VICTORICA",
      "source": "SMN georef location search"
    },
    "1524": {
      "id": 1524,
      "name": "San Antonio",
      "department": "Belgrano",
      "province": "San Luis",
      "station_number": 87436,
      "forecast_reference_id": 1712,
      "lon": -66.8925,
      "lat": -32.6283,
      "distance_km": 87.73,
      "station_name": "SAN LUIS AERO",
      "source": "SMN georef location search"
    },
    "1527": {
      "id": 1527,
      "name": "Las Toscas",
      "department": "Belgrano",
      "province": "San Luis",
      "station_number": 87436,
      "forecast_reference_id": 1712,
      "lon": -66.8585,
      "lat": -32.8455,
      "distance_km": 67.13,
      "station_name": "SAN LUIS AERO",
      "source": "SMN georef location search"
    },
    "1531": {
      "id": 1531,
      "name": "San Pedro",
      "department": "Belgrano",
      "province": "San Luis",
      "station_number": 87436,
      "forecast_reference_id": 1712,
      "lon": -66.6928,
      "lat": -32.9772,
      "distance_km": 45.85,
      "station_name": "SAN LUIS AERO",
      "source": "SMN georef location search"
    },
    "1548": {
      "id": 1548,
      "name": "El Rincón",
      "department": "Ayacucho",
      "province": "San Luis",
      "station_number": 87436,
      "forecast_reference_id": 1695,
      "lon": -66.1853,
      "lat": -32.6642,
      "distance_km": 69.45,
      "station_name": "SAN LUIS AERO",
      "source": "SMN georef location search"
    },
    "1568": {
      "id": 1568,
      "name": "Leandro N. Alem",
      "department": "Ayacucho",
      "province": "San Luis",
      "station_number": 87436,
      "forecast_reference_id": 1695,
      "lon": -66.0488,
      "lat": -32.4824,
      "distance_km": 92.3,
      "station_name": "SAN LUIS AERO",
      "source": "SMN georef location search"
    },
    "1575": {
      "id": 1575,
      "name": "Vinagrillo",
      "department": "Ayacucho",
      "province": "San Luis",
      "station_number": 87444,
      "forecast_reference_id": 1601,
      "lon": -66.0244,
      "lat": -32.3991,
      "distance_km": 79.49,
      "station_name": "SANTA ROSA DE CONLARA AERO",
      "source": "SMN georef location search"
    },
    "1584": {
      "id": 1584,
      "name": "La Reforma",
      "department": "Ayacucho",
      "province": "San Luis",
      "station_number": 87322,
      "forecast_reference_id": 1601,
      "lon": -66.265,
      "lat": -32.1794,
      "distance_km": 98.87,
      "station_name": "CHEPES",
      "source": "SMN georef location search"
    },
    "1588": {
      "id": 1588,
      "name": "La Primavera",
      "department": "Ayacucho",
      "province": "San Luis",
      "station_number": 87328,
      "forecast_reference_id": 1601,
      "lon": -65.9899,
      "lat": -32.0391,
      "distance_km": 80.05,
      "station_name": "VILLA DOLORES AERO",
      "source": "SMN georef location search"
    },
    "1592": {
      "id": 1592,
      "name": "Luján",
      "department": "Ayacucho",
      "province": "San Luis",
      "station_number": 87444,
      "forecast_reference_id": 1601,
      "lon": -65.9176,
      "lat": -32.3642,
      "distance_km": 69.44,
      "station_name": "SANTA ROSA DE CONLARA AERO",
      "source": "SMN georef location search"
    },
    "1603": {
      "id": 1603,
      "name": "San Miguel",
      "department": "Ayacucho",
      "province": "San Luis",
      "station_number": 87444,
      "forecast_reference_id": 1601,
      "lon": -65.8062,
      "lat": -32.1529,
      "distance_km": 64.11,
      "station_name": "SANTA ROSA DE CONLARA AERO",
      "source": "SMN georef location search"
    },
    "1607": {
      "id": 1607,
      "name": "Santa María",
      "department": "Ayacucho",
      "province": "San Luis",
      "station_number": 87328,
      "forecast_reference_id": 1601,
      "lon": -65.8254,
      "lat": -32.0092,
      "distance_km": 64.25,
      "station_name": "VILLA DOLORES AERO",
      "source": "SMN georef location search"
    },
    "1615": {
      "id": 1615,
      "name": "El Rincón",
      "department": "Libertador General San Martín",
      "province": "San Luis",
      "station_number": 87444,
      "forecast_reference_id": 1695,
      "lon": -65.7332,
      "lat": -32.7363,
      "distance_km": 65.35,
      "station_name": "SANTA ROSA DE CONLARA AERO",
      "source": "SMN georef location search"
    },
    "1676": {
      "id": 1676,
      "name": "Loma Verde",
      "department": "Chacabuco",
      "province": "San Luis",
      "station_number": 87444,
      "forecast_reference_id": 1670,
      "lon": -64.9768,
      "lat": -32.5232,
      "distance_km": 24.91,
      "station_name": "SANTA ROSA DE CONLARA AERO",
      "source": "SMN georef location search"
    },
    "1677": {
      "id": 1677,
      "name": "San Miguel",
      "department": "Chacabuco",
      "province": "San Luis",
      "station_number": 87444,
      "forecast_reference_id": 1670,
      "lon": -64.9795,
      "lat": -32.5454,
      "distance_km": 26.37,
      "station_name": "SANTA ROSA DE CONLARA AERO",
      "source": "SMN georef location search"
    },
    "1679": {
      "id": 1679,
      "name": "San Antonio",
      "department": "Chacabuco",
      "province": "San Luis",
      "station_number": 87444,
      "forecast_reference_id": 1670,
      "lon": -64.9898,
      "lat": -32.5791,
      "distance_km": 28.49,
      "station_name": "SANTA ROSA DE CONLARA AERO",
      "source": "SMN georef location search"
    },
    "1682": {
      "id": 1682,
      "name": "El Recuerdo",
      "department": "Chacabuco",
      "province": "San Luis",
      "station_number": 87444,
      "forecast_reference_id": 1670,
      "lon": -64.9937,
      "lat": -32.7044,
      "distance_km": 40.1,
      "station_name": "SANTA ROSA DE CONLARA AERO",
      "source": "SMN georef location search"
    },
    "1758": {
      "id": 1758,
      "name": "La Toma",
      "department": "Coronel Pringles",
      "province": "San Luis",
      "station_number": 87448,
      "forecast_reference_id": 1754,
      "lon": -65.6142,
      "lat": -33.0553,
      "distance_km": 76.85,
      "station_name": "VILLA REYNOLDS AERO",
      "source": "SMN georef location search"
    },
    "1803": {
      "id": 1803,
      "name": "Leandro N. Alem",
      "department": "Lago Buenos Aires",
      "province": "Santa Cruz",
      "station_number": 87880,
      "forecast_reference_id": 1827,
      "lon": -70.2373,
      "lat": -46.1485,
      "distance_km": 292.89,
      "station_name": "GOBERNADOR GREGORES AERO",
      "source": "SMN georef location search"
    },
    "1885": {
      "id": 1885,
      "name": "Las Toscas",
      "department": "General Obligado",
      "province": "Santa Fe",
      "station_number": 87270,
      "forecast_reference_id": 2006,
      "lon": -59.2578,
      "lat": -28.3529,
      "distance_km": 103.58,
      "station_name": "RECONQUISTA AERO",
      "source": "SMN georef location search"
    },
    "1895": {
      "id": 1895,
      "name": "San Juan",
      "department": "General Obligado",
      "province": "Santa Fe",
      "station_number": 87270,
      "forecast_reference_id": 2006,
      "lon": -59.5837,
      "lat": -28.2291,
      "distance_km": 108.7,
      "station_name": "RECONQUISTA AERO",
      "source": "SMN georef location search"
    },
    "1904": {
      "id": 1904,
      "name": "Rincón de Amores",
      "department": "General Obligado",
      "province": "Santa Fe",
      "station_number": 87270,
      "forecast_reference_id": 2006,
      "lon": -59.3474,
      "lat": -28.6186,
      "distance_km": 73.24,
      "station_name": "RECONQUISTA AERO",
      "source": "SMN georef location search"
    },
    "1965": {
      "id": 1965,
      "name": "El Recuerdo",
      "department": "San Cristóbal",
      "province": "Santa Fe",
      "station_number": 87257,
      "forecast_reference_id": 1967,
      "lon": -61.723,
      "lat": -29.9607,
      "distance_km": 22.63,
      "station_name": "CERES AERO",
      "source": "SMN georef location search"
    },
    "1977": {
      "id": 1977,
      "name": "El 38",
      "department": "Vera",
      "province": "Santa Fe",
      "station_number": 87270,
      "forecast_reference_id": 2006,
      "lon": -60.5438,
      "lat": -29.4821,
      "distance_km": 88.11,
      "station_name": "RECONQUISTA AERO",
      "source": "SMN georef location search"
    },
    "1989": {
      "id": 1989,
      "name": "Santa Lucía",
      "department": "Vera",
      "province": "Santa Fe",
      "station_number": 87270,
      "forecast_reference_id": 2006,
      "lon": -60.3688,
      "lat": -29.2661,
      "distance_km": 66.01,
      "station_name": "RECONQUISTA AERO",
      "source": "SMN georef location search"
    },
    "1996": {
      "id": 1996,
      "name": "Tres Lagunas",
      "department": "Vera",
      "province": "Santa Fe",
      "station_number": 87270,
      "forecast_reference_id": 2006,
      "lon": -60.7542,
      "lat": -29.5248,
      "distance_km": 108.93,
      "station_name": "RECONQUISTA AERO",
      "source": "SMN georef location search"
    },
    "2017": {
      "id": 2017,
      "name": "La Esmeralda",
      "department": "General Obligado",
      "province": "Santa Fe",
      "station_number": 87270,
      "forecast_reference_id": 2006,
      "lon": -59.6962,
      "lat": -29.3212,
      "distance_km": 12.87,
      "station_name": "RECONQUISTA AERO",
      "source": "SMN georef location search"
    },
    "2141": {
      "id": 2141,
      "name": "San Antonio",
      "department": "Castellanos",
      "province": "Santa Fe",
      "station_number": 87360,
      "forecast_reference_id": 2060,
      "lon": -61.7256,
      "lat": -31.2115,
      "distance_km": 21.84,
      "station_name": "RAFAELA AERO",
      "source": "SMN georef location search"
    },
    "2149": {
      "id": 2149,
      "name": "San Vicente",
      "department": "Castellanos",
      "province": "Santa Fe",
      "station_number": 87360,
      "forecast_reference_id": 2060,
      "lon": -61.5679,
      "lat": -31.6984,
      "distance_km": 47.0,
      "station_name": "RAFAELA AERO",
      "source": "SMN georef location search"
    },
    "2154": {
      "id": 2154,
      "name": "San Jorge",
      "department": "San Martín",
      "province": "Santa Fe",
      "station_number": 87360,
      "forecast_reference_id": 2060,
      "lon": -61.8614,
      "lat": -31.8937,
      "distance_km": 76.05,
      "station_name": "RAFAELA AERO",
      "source": "SMN georef location search"
    },
    "2217": {
      "id": 2217,
      "name": "San Agustín",
      "department": "Las Colonias",
      "province": "Santa Fe",
      "station_number": 87360,
      "forecast_reference_id": 2060,
      "lon": -60.9405,
      "lat": -31.6837,
      "distance_km": 70.37,
      "station_name": "RAFAELA AERO",
      "source": "SMN georef location search"
    },
    "2225": {
      "id": 2225,
      "name": "Santo Domingo",
      "department": "Las Colonias",
      "province": "Santa Fe",
      "station_number": 87360,
      "forecast_reference_id": 2060,
      "lon": -60.8879,
      "lat": -31.1212,
      "distance_km": 61.73,
      "station_name": "RAFAELA AERO",
      "source": "SMN georef location search"
    },
    "2335": {
      "id": 2335,
      "name": "Santa Isabel",
      "department": "General López",
      "province": "Santa Fe",
      "station_number": 87468,
      "forecast_reference_id": 2317,
      "lon": -61.6926,
      "lat": -33.8883,
      "distance_km": 33.79,
      "station_name": "VENADO TUERTO AERO",
      "source": "SMN georef location search"
    },
    "2352": {
      "id": 2352,
      "name": "Pavón",
      "department": "Constitución",
      "province": "Santa Fe",
      "station_number": 87480,
      "forecast_reference_id": 2278,
      "lon": -60.405,
      "lat": -33.2409,
      "distance_km": 51.01,
      "station_name": "ROSARIO AERO",
      "source": "SMN georef location search"
    },
    "2389": {
      "id": 2389,
      "name": "Pavón Arriba",
      "department": "Constitución",
      "province": "Santa Fe",
      "station_number": 87480,
      "forecast_reference_id": 2278,
      "lon": -60.8219,
      "lat": -33.3126,
      "distance_km": 45.01,
      "station_name": "ROSARIO AERO",
      "source": "SMN georef location search"
    },
    "2401": {
      "id": 2401,
      "name": "Máximo Paz",
      "department": "Constitución",
      "province": "Santa Fe",
      "station_number": 87480,
      "forecast_reference_id": 2278,
      "lon": -60.9555,
      "lat": -33.4838,
      "distance_km": 65.86,
      "station_name": "ROSARIO AERO",
      "source": "SMN georef location search"
    },
    "2420": {
      "id": 2420,
      "name": "Los Ángeles",
      "department": "General López",
      "province": "Santa Fe",
      "station_number": 87468,
      "forecast_reference_id": 2317,
      "lon": -61.7003,
      "lat": -34.0553,
      "distance_km": 47.91,
      "station_name": "VENADO TUERTO AERO",
      "source": "SMN georef location search"
    },
    "2424": {
      "id": 2424,
      "name": "El Porvenir",
      "department": "General López",
      "province": "Santa Fe",
      "station_number": 87468,
      "forecast_reference_id": 2317,
      "lon": -62.7215,
      "lat": -34.3268,
      "distance_km": 100.21,
      "station_name": "VENADO TUERTO AERO",
      "source": "SMN georef location search"
    },
    "2427": {
      "id": 2427,
      "name": "Lazzarino",
      "department": "General López",
      "province": "Santa Fe",
      "station_number": 87468,
      "forecast_reference_id": 2317,
      "lon": -62.4265,
      "lat": -34.1651,
      "distance_km": 68.69,
      "station_name": "VENADO TUERTO AERO",
      "source": "SMN georef location search"
    },
    "2443": {
      "id": 2443,
      "name": "Pueblo Nuevo",
      "department": "Copo",
      "province": "Santiago del Estero",
      "station_number": 87050,
      "forecast_reference_id": 2474,
      "lon": -63.7325,
      "lat": -25.9851,
      "distance_km": 134.51,
      "station_name": "METAN",
      "source": "SMN georef location search"
    },
    "2468": {
      "id": 2468,
      "name": "San Ignacio",
      "department": "Copo",
      "province": "Santiago del Estero",
      "station_number": 87065,
      "forecast_reference_id": 2474,
      "lon": -62.9308,
      "lat": -25.6769,
      "distance_km": 165.29,
      "station_name": "RIVADAVIA",
      "source": "SMN georef location search"
    },
    "2472": {
      "id": 2472,
      "name": "San Antonio",
      "department": "Copo",
      "province": "Santiago del Estero",
      "station_number": 87065,
      "forecast_reference_id": 2474,
      "lon": -62.8643,
      "lat": -25.7776,
      "distance_km": 176.4,
      "station_name": "RIVADAVIA",
      "source": "SMN georef location search"
    },
    "2499": {
      "id": 2499,
      "name": "El Rincón",
      "department": "Jimenez",
      "province": "Santiago del Estero",
      "station_number": 87127,
      "forecast_reference_id": 2819,
      "lon": -64.7028,
      "lat": -26.9581,
      "distance_km": 64.91,
      "station_name": "TERMAS DE RIO HONDO AERO",
      "source": "SMN georef location search"
    },
    "2500": {
      "id": 2500,
      "name": "Villa María",
      "department": "Jimenez",
      "province": "Santiago del Estero",
      "station_number": 87127,
      "forecast_reference_id": 2819,
      "lon": -64.5939,
      "lat": -26.7187,
      "distance_km": 93.55,
      "station_name": "TERMAS DE RIO HONDO AERO",
      "source": "SMN georef location search"
    },
    "2508": {
      "id": 2508,
      "name": "Martín García",
      "department": "Jimenez",
      "province": "Santiago del Estero",
      "station_number": 87127,
      "forecast_reference_id": 2819,
      "lon": -64.5234,
      "lat": -26.7038,
      "distance_km": 97.79,
      "station_name": "TERMAS DE RIO HONDO AERO",
      "source": "SMN georef location search"
    },
    "2522": {
      "id": 2522,
      "name": "San Juan",
      "department": "Pellegrini",
      "province": "Santiago del Estero",
      "station_number": 87121,
      "forecast_reference_id": 2474,
      "lon": -64.4241,
      "lat": -26.5105,
      "distance_km": 77.14,
      "station_name": "TUCUMAN AERO",
      "source": "SMN georef location search"
    },
    "2541": {
      "id": 2541,
      "name": "Vinal Pozo",
      "department": "Pellegrini",
      "province": "Santiago del Estero",
      "station_number": 87050,
      "forecast_reference_id": 2474,
      "lon": -64.3164,
      "lat": -26.2137,
      "distance_km": 100.81,
      "station_name": "METAN",
      "source": "SMN georef location search"
    },
    "2547": {
      "id": 2547,
      "name": "El Porvenir",
      "department": "Pellegrini",
      "province": "Santiago del Estero",
      "station_number": 87121,
      "forecast_reference_id": 2474,
      "lon": -64.3779,
      "lat": -26.3258,
      "distance_km": 92.24,
      "station_name": "TUCUMAN AERO",
      "source": "SMN georef location search"
    },
    "2556": {
      "id": 2556,
      "name": "El Rincón del Carmen",
      "department": "Jimenez",
      "province": "Santiago del Estero",
      "station_number": 87127,
      "forecast_reference_id": 2819,
      "lon": -64.3275,
      "lat": -26.6994,
      "distance_km": 107.76,
      "station_name": "TERMAS DE RIO HONDO AERO",
      "source": "SMN georef location search"
    },
    "2601": {
      "id": 2601,
      "name": "Arenales",
      "department": "Pellegrini",
      "province": "Santiago del Estero",
      "station_number": 87121,
      "forecast_reference_id": 2474,
      "lon": -64.1006,
      "lat": -26.4088,
      "distance_km": 111.03,
      "station_name": "TUCUMAN AERO",
      "source": "SMN georef location search"
    },
    "2609": {
      "id": 2609,
      "name": "Ranchos",
      "department": "Figueroa",
      "province": "Santiago del Estero",
      "station_number": 87129,
      "forecast_reference_id": 2474,
      "lon": -63.9367,
      "lat": -26.9646,
      "distance_km": 94.65,
      "station_name": "SANTIAGO DEL ESTERO AERO",
      "source": "SMN georef location search"
    },
    "2617": {
      "id": 2617,
      "name": "San Jorge",
      "department": "Pellegrini",
      "province": "Santiago del Estero",
      "station_number": 87121,
      "forecast_reference_id": 2474,
      "lon": -63.9584,
      "lat": -26.4688,
      "distance_km": 121.56,
      "station_name": "TUCUMAN AERO",
      "source": "SMN georef location search"
    },
    "2630": {
      "id": 2630,
      "name": "La Constancia",
      "department": "Pellegrini",
      "province": "Santiago del Estero",
      "station_number": 87129,
      "forecast_reference_id": 2474,
      "lon": -63.8416,
      "lat": -26.5443,
      "distance_km": 141.61,
      "station_name": "SANTIAGO DEL ESTERO AERO",
      "source": "SMN georef location search"
    },
    "2631": {
      "id": 2631,
      "name": "Vinal Selsliana",
      "department": "Pellegrini",
      "province": "Santiago del Estero",
      "station_number": 87129,
      "forecast_reference_id": 2474,
      "lon": -63.832,
      "lat": -26.5908,
      "distance_km": 137.06,
      "station_name": "SANTIAGO DEL ESTERO AERO",
      "source": "SMN georef location search"
    },
    "2642": {
      "id": 2642,
      "name": "Santo Domingo",
      "department": "Pellegrini",
      "province": "Santiago del Estero",
      "station_number": 87050,
      "forecast_reference_id": 2474,
      "lon": -63.7808,
      "lat": -26.2173,
      "distance_km": 142.02,
      "station_name": "METAN",
      "source": "SMN georef location search"
    },
    "2652": {
      "id": 2652,
      "name": "Vinal Suni",
      "department": "Copo",
      "province": "Santiago del Estero",
      "station_number": 87050,
      "forecast_reference_id": 2474,
      "lon": -63.6641,
      "lat": -26.056,
      "distance_km": 143.88,
      "station_name": "METAN",
      "source": "SMN georef location search"
    },
    "2659": {
      "id": 2659,
      "name": "Luján",
      "department": "Jimenez",
      "province": "Santiago del Estero",
      "station_number": 87127,
      "forecast_reference_id": 2819,
      "lon": -63.7389,
      "lat": -26.6267,
      "distance_km": 153.48,
      "station_name": "TERMAS DE RIO HONDO AERO",
      "source": "SMN georef location search"
    },
    "2685": {
      "id": 2685,
      "name": "Vinal Viejo",
      "department": "Alberdi",
      "province": "Santiago del Estero",
      "station_number": 87129,
      "forecast_reference_id": 2474,
      "lon": -63.558,
      "lat": -26.5151,
      "distance_km": 155.81,
      "station_name": "SANTIAGO DEL ESTERO AERO",
      "source": "SMN georef location search"
    },
    "2700": {
      "id": 2700,
      "name": "Santa María",
      "department": "Alberdi",
      "province": "Santiago del Estero",
      "station_number": 87129,
      "forecast_reference_id": 2474,
      "lon": -63.3677,
      "lat": -26.5378,
      "distance_km": 163.47,
      "station_name": "SANTIAGO DEL ESTERO AERO",
      "source": "SMN georef location search"
    },
    "2708": {
      "id": 2708,
      "name": "La Paloma",
      "department": "Alberdi",
      "province": "Santiago del Estero",
      "station_number": 87129,
      "forecast_reference_id": 2474,
      "lon": -63.304,
      "lat": -26.4132,
      "distance_km": 178.47,
      "station_name": "SANTIAGO DEL ESTERO AERO",
      "source": "SMN georef location search"
    },
    "2741": {
      "id": 2741,
      "name": "Agustina Libarona",
      "department": "Alberdi",
      "province": "Santiago del Estero",
      "station_number": 87129,
      "forecast_reference_id": 2474,
      "lon": -62.7052,
      "lat": -26.7895,
      "distance_km": 190.71,
      "station_name": "SANTIAGO DEL ESTERO AERO",
      "source": "SMN georef location search"
    },
    "2746": {
      "id": 2746,
      "name": "La Unión",
      "department": "Copo",
      "province": "Santiago del Estero",
      "station_number": 87065,
      "forecast_reference_id": 2474,
      "lon": -62.8364,
      "lat": -26.1171,
      "distance_km": 214.05,
      "station_name": "RIVADAVIA",
      "source": "SMN georef location search"
    },
    "2748": {
      "id": 2748,
      "name": "El Porvenir",
      "department": "Alberdi",
      "province": "Santiago del Estero",
      "station_number": 87065,
      "forecast_reference_id": 2474,
      "lon": -62.695,
      "lat": -26.2917,
      "distance_km": 234.13,
      "station_name": "RIVADAVIA",
      "source": "SMN georef location search"
    },
    "2754": {
      "id": 2754,
      "name": "La Delia",
      "department": "Alberdi",
      "province": "Santiago del Estero",
      "station_number": 87148,
      "forecast_reference_id": 3278,
      "lon": -61.918,
      "lat": -26.5796,
      "distance_km": 143.67,
      "station_name": "PRESIDENCIA ROQUE SAENZ PEÑA AERO",
      "source": "SMN georef location search"
    },
    "2757": {
      "id": 2757,
      "name": "San Pedro",
      "department": "Guasayán",
      "province": "Santiago del Estero",
      "station_number": 87127,
      "forecast_reference_id": 2819,
      "lon": -65.1663,
      "lat": -27.9553,
      "distance_km": 54.78,
      "station_name": "TERMAS DE RIO HONDO AERO",
      "source": "SMN georef location search"
    },
    "2771": {
      "id": 2771,
      "name": "San José",
      "department": "Guasayán",
      "province": "Santiago del Estero",
      "station_number": 87127,
      "forecast_reference_id": 2819,
      "lon": -64.9208,
      "lat": -27.8111,
      "distance_km": 33.82,
      "station_name": "TERMAS DE RIO HONDO AERO",
      "source": "SMN georef location search"
    },
    "2805": {
      "id": 2805,
      "name": "Vinara",
      "department": "Río Hondo",
      "province": "Santiago del Estero",
      "station_number": 87127,
      "forecast_reference_id": 2819,
      "lon": -64.7952,
      "lat": -27.3774,
      "distance_km": 19.82,
      "station_name": "TERMAS DE RIO HONDO AERO",
      "source": "SMN georef location search"
    },
    "2816": {
      "id": 2816,
      "name": "Isla de Los Sotelos",
      "department": "Río Hondo",
      "province": "Santiago del Estero",
      "station_number": 87127,
      "forecast_reference_id": 2819,
      "lon": -64.6886,
      "lat": -27.4735,
      "distance_km": 24.55,
      "station_name": "TERMAS DE RIO HONDO AERO",
      "source": "SMN georef location search"
    },
    "2818": {
      "id": 2818,
      "name": "Isla Aragones",
      "department": "Río Hondo",
      "province": "Santiago del Estero",
      "station_number": 87127,
      "forecast_reference_id": 2819,
      "lon": -64.6464,
      "lat": -27.4529,
      "distance_km": 29.06,
      "station_name": "TERMAS DE RIO HONDO AERO",
      "source": "SMN georef location search"
    },
    "2857": {
      "id": 2857,
      "name": "Luján",
      "department": "Guasayán",
      "province": "Santiago del Estero",
      "station_number": 87127,
      "forecast_reference_id": 2819,
      "lon": -64.5746,
      "lat": -27.9938,
      "distance_km": 64.64,
      "station_name": "TERMAS DE RIO HONDO AERO",
      "source": "SMN georef location search"
    },
    "2858": {
      "id": 2858,
      "name": "Luján",
      "department": "Capital",
      "province": "Santiago del Estero",
      "station_number": 87127,
      "forecast_reference_id": 2819,
      "lon": -64.5629,
      "lat": -27.9918,
      "distance_km": 65.1,
      "station_name": "TERMAS DE RIO HONDO AERO",
      "source": "SMN georef location search"
    },
    "2859": {
      "id": 2859,
      "name": "El Rincón",
      "department": "Capital",
      "province": "Santiago del Estero",
      "station_number": 87129,
      "forecast_reference_id": 2954,
      "lon": -64.5293,
      "lat": -27.9096,
      "distance_km": 28.38,
      "station_name": "SANTIAGO DEL ESTERO AERO",
      "source": "SMN georef location search"
    },
    "2905": {
      "id": 2905,
      "name": "El Retiro",
      "department": "Jimenez",
      "province": "Santiago del Estero",
      "station_number": 87127,
      "forecast_reference_id": 2819,
      "lon": -64.4283,
      "lat": -27.0721,
      "distance_km": 69.45,
      "station_name": "TERMAS DE RIO HONDO AERO",
      "source": "SMN georef location search"
    },
    "2911": {
      "id": 2911,
      "name": "San Miguel",
      "department": "Jimenez",
      "province": "Santiago del Estero",
      "station_number": 87127,
      "forecast_reference_id": 2819,
      "lon": -64.2517,
      "lat": -27.065,
      "distance_km": 83.41,
      "station_name": "TERMAS DE RIO HONDO AERO",
      "source": "SMN georef location search"
    },
    "2912": {
      "id": 2912,
      "name": "San Pedro",
      "department": "Jimenez",
      "province": "Santiago del Estero",
      "station_number": 87127,
      "forecast_reference_id": 2819,
      "lon": -64.2618,
      "lat": -27.1035,
      "distance_km": 80.14,
      "station_name": "TERMAS DE RIO HONDO AERO",
      "source": "SMN georef location search"
    },
    "2918": {
      "id": 2918,
      "name": "Bajo Hondo",
      "department": "Jimenez",
      "province": "Santiago del Estero",
      "station_number": 87127,
      "forecast_reference_id": 2819,
      "lon": -64.4724,
      "lat": -27.2139,
      "distance_km": 56.01,
      "station_name": "TERMAS DE RIO HONDO AERO",
      "source": "SMN georef location search"
    },
    "2932": {
      "id": 2932,
      "name": "Bajo Hondo",
      "department": "Banda",
      "province": "Santiago del Estero",
      "station_number": 87129,
      "forecast_reference_id": 2954,
      "lon": -64.3203,
      "lat": -27.4667,
      "distance_km": 31.99,
      "station_name": "SANTIAGO DEL ESTERO AERO",
      "source": "SMN georef location search"
    },
    "2951": {
      "id": 2951,
      "name": "Santa María",
      "department": "Capital",
      "province": "Santiago del Estero",
      "station_number": 87129,
      "forecast_reference_id": 2954,
      "lon": -64.2243,
      "lat": -27.9509,
      "distance_km": 22.97,
      "station_name": "SANTIAGO DEL ESTERO AERO",
      "source": "SMN georef location search"
    },
    "2975": {
      "id": 2975,
      "name": "San Juan",
      "department": "Banda",
      "province": "Santiago del Estero",
      "station_number": 87129,
      "forecast_reference_id": 2954,
      "lon": -64.2078,
      "lat": -27.6078,
      "distance_km": 18.65,
      "station_name": "SANTIAGO DEL ESTERO AERO",
      "source": "SMN georef location search"
    },
    "2985": {
      "id": 2985,
      "name": "Santo Domingo",
      "department": "Robles",
      "province": "Santiago del Estero",
      "station_number": 87129,
      "forecast_reference_id": 2954,
      "lon": -64.161,
      "lat": -27.8435,
      "distance_km": 16.84,
      "station_name": "SANTIAGO DEL ESTERO AERO",
      "source": "SMN georef location search"
    },
    "3002": {
      "id": 3002,
      "name": "Isla Corral",
      "department": "Banda",
      "province": "Santiago del Estero",
      "station_number": 87129,
      "forecast_reference_id": 2954,
      "lon": -64.1011,
      "lat": -27.7329,
      "distance_km": 19.74,
      "station_name": "SANTIAGO DEL ESTERO AERO",
      "source": "SMN georef location search"
    },
    "3021": {
      "id": 3021,
      "name": "San Antonio",
      "department": "Banda",
      "province": "Santiago del Estero",
      "station_number": 87129,
      "forecast_reference_id": 2954,
      "lon": -63.9464,
      "lat": -27.4287,
      "distance_km": 50.23,
      "station_name": "SANTIAGO DEL ESTERO AERO",
      "source": "SMN georef location search"
    },
    "3071": {
      "id": 3071,
      "name": "San Antonio",
      "department": "Figueroa",
      "province": "Santiago del Estero",
      "station_number": 87129,
      "forecast_reference_id": 2474,
      "lon": -63.6294,
      "lat": -27.4469,
      "distance_km": 74.46,
      "station_name": "SANTIAGO DEL ESTERO AERO",
      "source": "SMN georef location search"
    },
    "3080": {
      "id": 3080,
      "name": "San Jorge",
      "department": "Figueroa",
      "province": "Santiago del Estero",
      "station_number": 87129,
      "forecast_reference_id": 2474,
      "lon": -63.5233,
      "lat": -27.208,
      "distance_km": 97.78,
      "station_name": "SANTIAGO DEL ESTERO AERO",
      "source": "SMN georef location search"
    },
    "3082": {
      "id": 3082,
      "name": "San Agustín",
      "department": "Figueroa",
      "province": "Santiago del Estero",
      "station_number": 87129,
      "forecast_reference_id": 2474,
      "lon": -63.5347,
      "lat": -27.3453,
      "distance_km": 88.15,
      "station_name": "SANTIAGO DEL ESTERO AERO",
      "source": "SMN georef location search"
    },
    "3084": {
      "id": 3084,
      "name": "Vinal Isla",
      "department": "Figueroa",
      "province": "Santiago del Estero",
      "station_number": 87129,
      "forecast_reference_id": 2474,
      "lon": -63.5319,
      "lat": -27.474,
      "distance_km": 81.94,
      "station_name": "SANTIAGO DEL ESTERO AERO",
      "source": "SMN georef location search"
    },
    "3106": {
      "id": 3106,
      "name": "San Vicente",
      "department": "Figueroa",
      "province": "Santiago del Estero",
      "station_number": 87129,
      "forecast_reference_id": 2474,
      "lon": -63.4553,
      "lat": -27.5127,
      "distance_km": 87.56,
      "station_name": "SANTIAGO DEL ESTERO AERO",
      "source": "SMN georef location search"
    },
    "3112": {
      "id": 3112,
      "name": "Santa María",
      "department": "Figueroa",
      "province": "Santiago del Estero",
      "station_number": 87129,
      "forecast_reference_id": 2474,
      "lon": -63.4626,
      "lat": -27.1832,
      "distance_km": 104.21,
      "station_name": "SANTIAGO DEL ESTERO AERO",
      "source": "SMN georef location search"
    },
    "3114": {
      "id": 3114,
      "name": "El Porvenir",
      "department": "Figueroa",
      "province": "Santiago del Estero",
      "station_number": 87129,
      "forecast_reference_id": 2474,
      "lon": -63.4589,
      "lat": -27.1146,
      "distance_km": 109.29,
      "station_name": "SANTIAGO DEL ESTERO AERO",
      "source": "SMN georef location search"
    },
    "3118": {
      "id": 3118,
      "name": "El Rincón",
      "department": "Figueroa",
      "province": "Santiago del Estero",
      "station_number": 87129,
      "forecast_reference_id": 2474,
      "lon": -63.3279,
      "lat": -27.2944,
      "distance_km": 108.73,
      "station_name": "SANTIAGO DEL ESTERO AERO",
      "source": "SMN georef location search"
    },
    "3129": {
      "id": 3129,
      "name": "Santo Domingo",
      "department": "Figueroa",
      "province": "Santiago del Estero",
      "station_number": 87129,
      "forecast_reference_id": 2474,
      "lon": -63.3762,
      "lat": -27.7409,
      "distance_km": 91.07,
      "station_name": "SANTIAGO DEL ESTERO AERO",
      "source": "SMN georef location search"
    },
    "3133": {
      "id": 3133,
      "name": "San José",
      "department": "Brigadier Juan Felipe Ibarra",
      "province": "Santiago del Estero",
      "station_number": 87129,
      "forecast_reference_id": 3574,
      "lon": -63.2696,
      "lat": -27.7833,
      "distance_km": 101.6,
      "station_name": "SANTIAGO DEL ESTERO AERO",
      "source": "SMN georef location search"
    },
    "3134": {
      "id": 3134,
      "name": "San Pedro",
      "department": "Figueroa",
      "province": "Santiago del Estero",
      "station_number": 87129,
      "forecast_reference_id": 3574,
      "lon": -63.2525,
      "lat": -27.7431,
      "distance_km": 103.26,
      "station_name": "SANTIAGO DEL ESTERO AERO",
      "source": "SMN georef location search"
    },
    "3141": {
      "id": 3141,
      "name": "Santa Lucía",
      "department": "Moreno",
      "province": "Santiago del Estero",
      "station_number": 87129,
      "forecast_reference_id": 2474,
      "lon": -63.2039,
      "lat": -27.2793,
      "distance_km": 120.41,
      "station_name": "SANTIAGO DEL ESTERO AERO",
      "source": "SMN georef location search"
    },
    "3142": {
      "id": 3142,
      "name": "San José",
      "department": "Figueroa",
      "province": "Santiago del Estero",
      "station_number": 87129,
      "forecast_reference_id": 2474,
      "lon": -63.2764,
      "lat": -27.277,
      "distance_km": 114.13,
      "station_name": "SANTIAGO DEL ESTERO AERO",
      "source": "SMN georef location search"
    },
    "3144": {
      "id": 3144,
      "name": "Vinal Pozo",
      "department": "Figueroa",
      "province": "Santiago del Estero",
      "station_number": 87129,
      "forecast_reference_id": 2474,
      "lon": -63.2313,
      "lat": -27.1446,
      "distance_km": 125.42,
      "station_name": "SANTIAGO DEL ESTERO AERO",
      "source": "SMN georef location search"
    },
    "3153": {
      "id": 3153,
      "name": "Santo Domingo",
      "department": "Moreno",
      "province": "Santiago del Estero",
      "station_number": 87129,
      "forecast_reference_id": 2474,
      "lon": -63.1312,
      "lat": -27.3304,
      "distance_km": 124.64,
      "station_name": "SANTIAGO DEL ESTERO AERO",
      "source": "SMN georef location search"
    },
    "3158": {
      "id": 3158,
      "name": "Magdalena",
      "department": "Moreno",
      "province": "Santiago del Estero",
      "station_number": 87129,
      "forecast_reference_id": 2474,
      "lon": -63.0985,
      "lat": -27.5388,
      "distance_km": 120.94,
      "station_name": "SANTIAGO DEL ESTERO AERO",
      "source": "SMN georef location search"
    },
    "3162": {
      "id": 3162,
      "name": "San Antonio",
      "department": "Brigadier Juan Felipe Ibarra",
      "province": "Santiago del Estero",
      "station_number": 87129,
      "forecast_reference_id": 3574,
      "lon": -63.1246,
      "lat": -27.7969,
      "distance_km": 115.93,
      "station_name": "SANTIAGO DEL ESTERO AERO",
      "source": "SMN georef location search"
    },
    "3185": {
      "id": 3185,
      "name": "Bragado",
      "department": "Moreno",
      "province": "Santiago del Estero",
      "station_number": 87129,
      "forecast_reference_id": 2474,
      "lon": -63.0266,
      "lat": -27.2009,
      "distance_km": 140.0,
      "station_name": "SANTIAGO DEL ESTERO AERO",
      "source": "SMN georef location search"
    },
    "3235": {
      "id": 3235,
      "name": "El Arbolito",
      "department": "Moreno",
      "province": "Santiago del Estero",
      "station_number": 87148,
      "forecast_reference_id": 3278,
      "lon": -61.8586,
      "lat": -27.2483,
      "distance_km": 147.08,
      "station_name": "PRESIDENCIA ROQUE SAENZ PEÑA AERO",
      "source": "SMN georef location search"
    },
    "3236": {
      "id": 3236,
      "name": "El Lucero",
      "department": "Moreno",
      "province": "Santiago del Estero",
      "station_number": 87148,
      "forecast_reference_id": 3278,
      "lon": -61.7288,
      "lat": -27.3073,
      "distance_km": 138.03,
      "station_name": "PRESIDENCIA ROQUE SAENZ PEÑA AERO",
      "source": "SMN georef location search"
    },
    "3257": {
      "id": 3257,
      "name": "La Paloma",
      "department": "Moreno",
      "province": "Santiago del Estero",
      "station_number": 87148,
      "forecast_reference_id": 3278,
      "lon": -61.8479,
      "lat": -27.5518,
      "distance_km": 161.76,
      "station_name": "PRESIDENCIA ROQUE SAENZ PEÑA AERO",
      "source": "SMN georef location search"
    },
    "3289": {
      "id": 3289,
      "name": "San Jorge",
      "department": "Moreno",
      "province": "Santiago del Estero",
      "station_number": 87129,
      "forecast_reference_id": 3278,
      "lon": -62.4976,
      "lat": -27.7019,
      "distance_km": 177.81,
      "station_name": "SANTIAGO DEL ESTERO AERO",
      "source": "SMN georef location search"
    },
    "3293": {
      "id": 3293,
      "name": "San Juan",
      "department": "Moreno",
      "province": "Santiago del Estero",
      "station_number": 87129,
      "forecast_reference_id": 2474,
      "lon": -62.8545,
      "lat": -27.6863,
      "distance_km": 142.73,
      "station_name": "SANTIAGO DEL ESTERO AERO",
      "source": "SMN georef location search"
    },
    "3309": {
      "id": 3309,
      "name": "Bajo Hondo",
      "department": "Brigadier Juan Felipe Ibarra",
      "province": "Santiago del Estero",
      "station_number": 87148,
      "forecast_reference_id": 3574,
      "lon": -61.8217,
      "lat": -27.9096,
      "distance_km": 184.57,
      "station_name": "PRESIDENCIA ROQUE SAENZ PEÑA AERO",
      "source": "SMN georef location search"
    },
    "3313": {
      "id": 3313,
      "name": "Santa Lucía",
      "department": "Brigadier Juan Felipe Ibarra",
      "province": "Santiago del Estero",
      "station_number": 87129,
      "forecast_reference_id": 3574,
      "lon": -62.3285,
      "lat": -27.8614,
      "distance_km": 194.6,
      "station_name": "SANTIAGO DEL ESTERO AERO",
      "source": "SMN georef location search"
    },
    "3317": {
      "id": 3317,
      "name": "Vilelas",
      "department": "Brigadier Juan Felipe Ibarra",
      "province": "Santiago del Estero",
      "station_number": 87129,
      "forecast_reference_id": 3574,
      "lon": -62.6099,
      "lat": -27.9599,
      "distance_km": 167.98,
      "station_name": "SANTIAGO DEL ESTERO AERO",
      "source": "SMN georef location search"
    },
    "3341": {
      "id": 3341,
      "name": "San Pedro",
      "department": "Choya",
      "province": "Santiago del Estero",
      "station_number": 87129,
      "forecast_reference_id": 2954,
      "lon": -64.8646,
      "lat": -28.4653,
      "distance_km": 96.33,
      "station_name": "SANTIAGO DEL ESTERO AERO",
      "source": "SMN georef location search"
    },
    "3364": {
      "id": 3364,
      "name": "Laprida",
      "department": "Choya",
      "province": "Santiago del Estero",
      "station_number": 87129,
      "forecast_reference_id": 2954,
      "lon": -64.5257,
      "lat": -28.381,
      "distance_km": 72.86,
      "station_name": "SANTIAGO DEL ESTERO AERO",
      "source": "SMN georef location search"
    },
    "3367": {
      "id": 3367,
      "name": "Rincón",
      "department": "Choya",
      "province": "Santiago del Estero",
      "station_number": 87129,
      "forecast_reference_id": 2954,
      "lon": -64.7019,
      "lat": -28.4584,
      "distance_km": 87.41,
      "station_name": "SANTIAGO DEL ESTERO AERO",
      "source": "SMN georef location search"
    },
    "3370": {
      "id": 3370,
      "name": "San Juan",
      "department": "Choya",
      "province": "Santiago del Estero",
      "station_number": 87129,
      "forecast_reference_id": 2954,
      "lon": -64.743,
      "lat": -28.6028,
      "distance_km": 103.56,
      "station_name": "SANTIAGO DEL ESTERO AERO",
      "source": "SMN georef location search"
    },
    "3371": {
      "id": 3371,
      "name": "San Antonio",
      "department": "Choya",
      "province": "Santiago del Estero",
      "station_number": 87129,
      "forecast_reference_id": 2954,
      "lon": -64.6351,
      "lat": -28.6735,
      "distance_km": 107.0,
      "station_name": "SANTIAGO DEL ESTERO AERO",
      "source": "SMN georef location search"
    },
    "3398": {
      "id": 3398,
      "name": "San Vicente",
      "department": "Loreto",
      "province": "Santiago del Estero",
      "station_number": 87129,
      "forecast_reference_id": 2954,
      "lon": -64.1326,
      "lat": -28.4921,
      "distance_km": 83.34,
      "station_name": "SANTIAGO DEL ESTERO AERO",
      "source": "SMN georef location search"
    },
    "3401": {
      "id": 3401,
      "name": "San Vicente",
      "department": "Silipica",
      "province": "Santiago del Estero",
      "station_number": 87129,
      "forecast_reference_id": 2954,
      "lon": -64.1819,
      "lat": -28.227,
      "distance_km": 53.6,
      "station_name": "SANTIAGO DEL ESTERO AERO",
      "source": "SMN georef location search"
    },
    "3445": {
      "id": 3445,
      "name": "Santa Elena",
      "department": "San Martín",
      "province": "Santiago del Estero",
      "station_number": 87129,
      "forecast_reference_id": 2954,
      "lon": -63.8277,
      "lat": -28.1029,
      "distance_km": 60.39,
      "station_name": "SANTIAGO DEL ESTERO AERO",
      "source": "SMN georef location search"
    },
    "3461": {
      "id": 3461,
      "name": "San Pedro",
      "department": "Avellaneda",
      "province": "Santiago del Estero",
      "station_number": 87129,
      "forecast_reference_id": 3574,
      "lon": -63.712,
      "lat": -28.4223,
      "distance_km": 93.86,
      "station_name": "SANTIAGO DEL ESTERO AERO",
      "source": "SMN georef location search"
    },
    "3470": {
      "id": 3470,
      "name": "San Marcos",
      "department": "Sarmiento",
      "province": "Santiago del Estero",
      "station_number": 87129,
      "forecast_reference_id": 3574,
      "lon": -63.6352,
      "lat": -28.0802,
      "distance_km": 74.7,
      "station_name": "SANTIAGO DEL ESTERO AERO",
      "source": "SMN georef location search"
    },
    "3481": {
      "id": 3481,
      "name": "La Paloma",
      "department": "Atamisqui",
      "province": "Santiago del Estero",
      "station_number": 87244,
      "forecast_reference_id": 3574,
      "lon": -63.6307,
      "lat": -28.7349,
      "distance_km": 130.13,
      "station_name": "VILLA DE MARIA DEL RIO SECO",
      "source": "SMN georef location search"
    },
    "3501": {
      "id": 3501,
      "name": "Santo Domingo",
      "department": "Avellaneda",
      "province": "Santiago del Estero",
      "station_number": 87129,
      "forecast_reference_id": 3574,
      "lon": -63.4677,
      "lat": -28.3822,
      "distance_km": 107.35,
      "station_name": "SANTIAGO DEL ESTERO AERO",
      "source": "SMN georef location search"
    },
    "3508": {
      "id": 3508,
      "name": "Santa Lucía",
      "department": "Salavina",
      "province": "Santiago del Estero",
      "station_number": 87244,
      "forecast_reference_id": 3574,
      "lon": -63.4984,
      "lat": -28.7182,
      "distance_km": 133.5,
      "station_name": "VILLA DE MARIA DEL RIO SECO",
      "source": "SMN georef location search"
    },
    "3529": {
      "id": 3529,
      "name": "San José",
      "department": "Avellaneda",
      "province": "Santiago del Estero",
      "station_number": 87129,
      "forecast_reference_id": 3574,
      "lon": -63.2225,
      "lat": -28.6169,
      "distance_km": 142.54,
      "station_name": "SANTIAGO DEL ESTERO AERO",
      "source": "SMN georef location search"
    },
    "3538": {
      "id": 3538,
      "name": "San Antonio",
      "department": "Avellaneda",
      "province": "Santiago del Estero",
      "station_number": 87129,
      "forecast_reference_id": 3574,
      "lon": -63.178,
      "lat": -28.6021,
      "distance_km": 144.75,
      "station_name": "SANTIAGO DEL ESTERO AERO",
      "source": "SMN georef location search"
    },
    "3550": {
      "id": 3550,
      "name": "Vinal Esquina",
      "department": "General Taboada",
      "province": "Santiago del Estero",
      "station_number": 87129,
      "forecast_reference_id": 3574,
      "lon": -63.0162,
      "lat": -28.3846,
      "distance_km": 144.19,
      "station_name": "SANTIAGO DEL ESTERO AERO",
      "source": "SMN georef location search"
    },
    "3605": {
      "id": 3605,
      "name": "San Pedro",
      "department": "Brigadier Juan Felipe Ibarra",
      "province": "Santiago del Estero",
      "station_number": 87257,
      "forecast_reference_id": 3574,
      "lon": -62.2489,
      "lat": -28.303,
      "distance_km": 176.94,
      "station_name": "CERES AERO",
      "source": "SMN georef location search"
    },
    "3620": {
      "id": 3620,
      "name": "Santa Elena",
      "department": "General Taboada",
      "province": "Santiago del Estero",
      "station_number": 87257,
      "forecast_reference_id": 3574,
      "lon": -62.0077,
      "lat": -28.6052,
      "distance_km": 140.98,
      "station_name": "CERES AERO",
      "source": "SMN georef location search"
    },
    "3633": {
      "id": 3633,
      "name": "Santo Domingo",
      "department": "Ojo de Agua",
      "province": "Santiago del Estero",
      "station_number": 87129,
      "forecast_reference_id": 2954,
      "lon": -63.9211,
      "lat": -29.2471,
      "distance_km": 169.49,
      "station_name": "SANTIAGO DEL ESTERO AERO",
      "source": "SMN georef location search"
    },
    "3645": {
      "id": 3645,
      "name": "San Juan",
      "department": "Ojo de Agua",
      "province": "Santiago del Estero",
      "station_number": 87129,
      "forecast_reference_id": 2954,
      "lon": -63.8306,
      "lat": -29.2894,
      "distance_km": 176.17,
      "station_name": "SANTIAGO DEL ESTERO AERO",
      "source": "SMN georef location search"
    },
    "3646": {
      "id": 3646,
      "name": "Santa María",
      "department": "Ojo de Agua",
      "province": "Santiago del Estero",
      "station_number": 87129,
      "forecast_reference_id": 2954,
      "lon": -63.8691,
      "lat": -29.2662,
      "distance_km": 172.73,
      "station_name": "SANTIAGO DEL ESTERO AERO",
      "source": "SMN georef location search"
    },
    "3690": {
      "id": 3690,
      "name": "San Juan",
      "department": "Quebrachos",
      "province": "Santiago del Estero",
      "station_number": 87244,
      "forecast_reference_id": 3574,
      "lon": -63.3402,
      "lat": -29.4518,
      "distance_km": 62.76,
      "station_name": "VILLA DE MARIA DEL RIO SECO",
      "source": "SMN georef location search"
    },
    "3691": {
      "id": 3691,
      "name": "La Primavera",
      "department": "Quebrachos",
      "province": "Santiago del Estero",
      "station_number": 87244,
      "forecast_reference_id": 3574,
      "lon": -63.3671,
      "lat": -29.4895,
      "distance_km": 57.85,
      "station_name": "VILLA DE MARIA DEL RIO SECO",
      "source": "SMN georef location search"
    },
    "3738": {
      "id": 3738,
      "name": "Paula",
      "department": "Aguirre",
      "province": "Santiago del Estero",
      "station_number": 87244,
      "forecast_reference_id": 3574,
      "lon": -62.9943,
      "lat": -29.1926,
      "distance_km": 106.3,
      "station_name": "VILLA DE MARIA DEL RIO SECO",
      "source": "SMN georef location search"
    },
    "3739": {
      "id": 3739,
      "name": "Paula",
      "department": "Mitre",
      "province": "Santiago del Estero",
      "station_number": 87244,
      "forecast_reference_id": 3574,
      "lon": -62.9972,
      "lat": -29.2303,
      "distance_km": 103.03,
      "station_name": "VILLA DE MARIA DEL RIO SECO",
      "source": "SMN georef location search"
    },
    "3741": {
      "id": 3741,
      "name": "Tres Lagunas",
      "department": "Belgrano",
      "province": "Santiago del Estero",
      "station_number": 87257,
      "forecast_reference_id": 3574,
      "lon": -62.0383,
      "lat": -29.3624,
      "distance_km": 57.74,
      "station_name": "CERES AERO",
      "source": "SMN georef location search"
    },
    "3781": {
      "id": 3781,
      "name": "Villa Sauze",
      "department": "General Villegas",
      "province": "Buenos Aires",
      "station_number": 87532,
      "forecast_reference_id": 3834,
      "lon": -63.3691,
      "lat": -35.2851,
      "distance_km": 57.05,
      "station_name": "GENERAL PICO AERO",
      "source": "SMN georef location search"
    },
    "3784": {
      "id": 3784,
      "name": "Banderalo",
      "department": "General Villegas",
      "province": "Buenos Aires",
      "station_number": 87532,
      "forecast_reference_id": 3834,
      "lon": -63.3744,
      "lat": -35.0153,
      "distance_km": 82.45,
      "station_name": "GENERAL PICO AERO",
      "source": "SMN georef location search"
    },
    "3785": {
      "id": 3785,
      "name": "Elordi",
      "department": "General Villegas",
      "province": "Buenos Aires",
      "station_number": 87532,
      "forecast_reference_id": 3834,
      "lon": -63.1223,
      "lat": -35.049,
      "distance_km": 91.55,
      "station_name": "GENERAL PICO AERO",
      "source": "SMN georef location search"
    },
    "3792": {
      "id": 3792,
      "name": "San Vicente",
      "department": "San Vicente",
      "province": "Buenos Aires",
      "station_number": 87576,
      "forecast_reference_id": 4040,
      "lon": -58.4204,
      "lat": -35.0263,
      "distance_km": 25.6,
      "station_name": "EZEIZA AERO",
      "source": "SMN georef location search"
    },
    "3793": {
      "id": 3793,
      "name": "Loma Verde",
      "department": "General Paz",
      "province": "Buenos Aires",
      "station_number": 87563,
      "forecast_reference_id": 4129,
      "lon": -58.4043,
      "lat": -35.2745,
      "distance_km": 107.91,
      "station_name": "LAS FLORES",
      "source": "SMN georef location search"
    },
    "3794": {
      "id": 3794,
      "name": "Villanueva",
      "department": "General Paz",
      "province": "Buenos Aires",
      "station_number": 87563,
      "forecast_reference_id": 4129,
      "lon": -58.4351,
      "lat": -35.6783,
      "distance_km": 75.13,
      "station_name": "LAS FLORES",
      "source": "SMN georef location search"
    },
    "3795": {
      "id": 3795,
      "name": "Ranchos",
      "department": "General Paz",
      "province": "Buenos Aires",
      "station_number": 87563,
      "forecast_reference_id": 4129,
      "lon": -58.317,
      "lat": -35.5168,
      "distance_km": 94.27,
      "station_name": "LAS FLORES",
      "source": "SMN georef location search"
    },
    "3796": {
      "id": 3796,
      "name": "Alegre",
      "department": "General Paz",
      "province": "Buenos Aires",
      "station_number": 87563,
      "forecast_reference_id": 4129,
      "lon": -58.2697,
      "lat": -35.4581,
      "distance_km": 101.71,
      "station_name": "LAS FLORES",
      "source": "SMN georef location search"
    },
    "3797": {
      "id": 3797,
      "name": "Altamirano",
      "department": "Brandsen",
      "province": "Buenos Aires",
      "station_number": 87593,
      "forecast_reference_id": 4040,
      "lon": -58.149,
      "lat": -35.3586,
      "distance_km": 49.26,
      "station_name": "LA PLATA AERO",
      "source": "SMN georef location search"
    },
    "3798": {
      "id": 3798,
      "name": "Jeppener",
      "department": "Brandsen",
      "province": "Buenos Aires",
      "station_number": 87593,
      "forecast_reference_id": 4040,
      "lon": -58.2001,
      "lat": -35.2741,
      "distance_km": 43.99,
      "station_name": "LA PLATA AERO",
      "source": "SMN georef location search"
    },
    "3799": {
      "id": 3799,
      "name": "Samborombon",
      "department": "Brandsen",
      "province": "Buenos Aires",
      "station_number": 87593,
      "forecast_reference_id": 4040,
      "lon": -58.2817,
      "lat": -35.2172,
      "distance_km": 44.86,
      "station_name": "LA PLATA AERO",
      "source": "SMN georef location search"
    },
    "3800": {
      "id": 3800,
      "name": "Coronel Brandsen",
      "department": "Brandsen",
      "province": "Buenos Aires",
      "station_number": 87593,
      "forecast_reference_id": 4040,
      "lon": -58.2366,
      "lat": -35.1698,
      "distance_km": 38.41,
      "station_name": "LA PLATA AERO",
      "source": "SMN georef location search"
    },
    "3801": {
      "id": 3801,
      "name": "Villa Mitre",
      "department": "La Plata",
      "province": "Buenos Aires",
      "station_number": 87593,
      "forecast_reference_id": 4856,
      "lon": -58.1521,
      "lat": -35.0708,
      "distance_km": 26.09,
      "station_name": "LA PLATA AERO",
      "source": "SMN georef location search"
    },
    "3802": {
      "id": 3802,
      "name": "Gómez",
      "department": "Brandsen",
      "province": "Buenos Aires",
      "station_number": 87593,
      "forecast_reference_id": 4040,
      "lon": -58.1766,
      "lat": -35.0729,
      "distance_km": 28.21,
      "station_name": "LA PLATA AERO",
      "source": "SMN georef location search"
    },
    "3804": {
      "id": 3804,
      "name": "Esquina Negra",
      "department": "La Plata",
      "province": "Buenos Aires",
      "station_number": 87593,
      "forecast_reference_id": 4856,
      "lon": -58.0593,
      "lat": -35.0388,
      "distance_km": 16.94,
      "station_name": "LA PLATA AERO",
      "source": "SMN georef location search"
    },
    "3805": {
      "id": 3805,
      "name": "Poblet",
      "department": "La Plata",
      "province": "Buenos Aires",
      "station_number": 87593,
      "forecast_reference_id": 4856,
      "lon": -57.9553,
      "lat": -35.0712,
      "distance_km": 12.85,
      "station_name": "LA PLATA AERO",
      "source": "SMN georef location search"
    },
    "3806": {
      "id": 3806,
      "name": "Oliden",
      "department": "Brandsen",
      "province": "Buenos Aires",
      "station_number": 87593,
      "forecast_reference_id": 4040,
      "lon": -57.9492,
      "lat": -35.1847,
      "distance_km": 24.73,
      "station_name": "LA PLATA AERO",
      "source": "SMN georef location search"
    },
    "3807": {
      "id": 3807,
      "name": "Gandara",
      "department": "Chascomus",
      "province": "Buenos Aires",
      "station_number": 87648,
      "forecast_reference_id": 4146,
      "lon": -58.097,
      "lat": -35.4465,
      "distance_km": 102.5,
      "station_name": "DOLORES AERO",
      "source": "SMN georef location search"
    },
    "3808": {
      "id": 3808,
      "name": "Chascomus",
      "department": "Chascomus",
      "province": "Buenos Aires",
      "station_number": 87648,
      "forecast_reference_id": 4146,
      "lon": -58.0062,
      "lat": -35.5722,
      "distance_km": 86.66,
      "station_name": "DOLORES AERO",
      "source": "SMN georef location search"
    },
    "3809": {
      "id": 3809,
      "name": "Adela",
      "department": "Chascomus",
      "province": "Buenos Aires",
      "station_number": 87648,
      "forecast_reference_id": 4146,
      "lon": -57.9523,
      "lat": -35.681,
      "distance_km": 73.69,
      "station_name": "DOLORES AERO",
      "source": "SMN georef location search"
    },
    "3810": {
      "id": 3810,
      "name": "Monasterio",
      "department": "Chascomus",
      "province": "Buenos Aires",
      "station_number": 87648,
      "forecast_reference_id": 4146,
      "lon": -57.925,
      "lat": -35.7621,
      "distance_km": 64.36,
      "station_name": "DOLORES AERO",
      "source": "SMN georef location search"
    },
    "3812": {
      "id": 3812,
      "name": "Guerrero",
      "department": "Castelli",
      "province": "Buenos Aires",
      "station_number": 87648,
      "forecast_reference_id": 4146,
      "lon": -57.8525,
      "lat": -35.9723,
      "distance_km": 40.14,
      "station_name": "DOLORES AERO",
      "source": "SMN georef location search"
    },
    "3813": {
      "id": 3813,
      "name": "Atilio Pessagno",
      "department": "Chascomus",
      "province": "Buenos Aires",
      "station_number": 87648,
      "forecast_reference_id": 4146,
      "lon": -57.7773,
      "lat": -35.7949,
      "distance_km": 58.18,
      "station_name": "DOLORES AERO",
      "source": "SMN georef location search"
    },
    "3814": {
      "id": 3814,
      "name": "Libres del Sur",
      "department": "Chascomus",
      "province": "Buenos Aires",
      "station_number": 87648,
      "forecast_reference_id": 4146,
      "lon": -57.7164,
      "lat": -35.7266,
      "distance_km": 65.5,
      "station_name": "DOLORES AERO",
      "source": "SMN georef location search"
    },
    "3815": {
      "id": 3815,
      "name": "Pedro N. Escribano",
      "department": "Chascomus",
      "province": "Buenos Aires",
      "station_number": 87648,
      "forecast_reference_id": 4146,
      "lon": -57.6885,
      "lat": -35.562,
      "distance_km": 83.81,
      "station_name": "DOLORES AERO",
      "source": "SMN georef location search"
    },
    "3816": {
      "id": 3816,
      "name": "Don Cipriano",
      "department": "Chascomus",
      "province": "Buenos Aires",
      "station_number": 87648,
      "forecast_reference_id": 4146,
      "lon": -57.7689,
      "lat": -35.4944,
      "distance_km": 91.39,
      "station_name": "DOLORES AERO",
      "source": "SMN georef location search"
    },
    "3817": {
      "id": 3817,
      "name": "Vergara",
      "department": "Magdalena",
      "province": "Buenos Aires",
      "station_number": 87593,
      "forecast_reference_id": 4040,
      "lon": -57.8034,
      "lat": -35.3831,
      "distance_km": 47.02,
      "station_name": "LA PLATA AERO",
      "source": "SMN georef location search"
    },
    "3818": {
      "id": 3818,
      "name": "José Ferrari",
      "department": "Magdalena",
      "province": "Buenos Aires",
      "station_number": 87593,
      "forecast_reference_id": 4040,
      "lon": -57.8649,
      "lat": -35.2854,
      "distance_km": 35.53,
      "station_name": "LA PLATA AERO",
      "source": "SMN georef location search"
    },
    "3819": {
      "id": 3819,
      "name": "La Trinidad",
      "department": "Magdalena",
      "province": "Buenos Aires",
      "station_number": 87596,
      "forecast_reference_id": 3833,
      "lon": -57.8667,
      "lat": -35.148,
      "distance_km": 56.91,
      "station_name": "PUNTA INDIO B.A.",
      "source": "SMN georef location search"
    },
    "3820": {
      "id": 3820,
      "name": "General Mansilla",
      "department": "Magdalena",
      "province": "Buenos Aires",
      "station_number": 87596,
      "forecast_reference_id": 3833,
      "lon": -57.7464,
      "lat": -35.0814,
      "distance_km": 51.02,
      "station_name": "PUNTA INDIO B.A.",
      "source": "SMN georef location search"
    },
    "3821": {
      "id": 3821,
      "name": "Atalaya",
      "department": "Magdalena",
      "province": "Buenos Aires",
      "station_number": 87596,
      "forecast_reference_id": 3833,
      "lon": -57.5344,
      "lat": -35.0278,
      "distance_km": 42.1,
      "station_name": "PUNTA INDIO B.A.",
      "source": "SMN georef location search"
    },
    "3822": {
      "id": 3822,
      "name": "Magdalena",
      "department": "Magdalena",
      "province": "Buenos Aires",
      "station_number": 87596,
      "forecast_reference_id": 3833,
      "lon": -57.513,
      "lat": -35.0796,
      "distance_km": 36.2,
      "station_name": "PUNTA INDIO B.A.",
      "source": "SMN georef location search"
    },
    "3824": {
      "id": 3824,
      "name": "Julio Arditi",
      "department": "Magdalena",
      "province": "Buenos Aires",
      "station_number": 87596,
      "forecast_reference_id": 3833,
      "lon": -57.6471,
      "lat": -35.1324,
      "distance_km": 40.38,
      "station_name": "PUNTA INDIO B.A.",
      "source": "SMN georef location search"
    },
    "3826": {
      "id": 3826,
      "name": "Comandante Giribone",
      "department": "Chascomus",
      "province": "Buenos Aires",
      "station_number": 87648,
      "forecast_reference_id": 4146,
      "lon": -57.654,
      "lat": -35.6246,
      "distance_km": 77.03,
      "station_name": "DOLORES AERO",
      "source": "SMN georef location search"
    },
    "3827": {
      "id": 3827,
      "name": "Rincón",
      "department": "Castelli",
      "province": "Buenos Aires",
      "station_number": 87596,
      "forecast_reference_id": 3833,
      "lon": -57.4038,
      "lat": -35.7809,
      "distance_km": 48.73,
      "station_name": "PUNTA INDIO B.A.",
      "source": "SMN georef location search"
    },
    "3835": {
      "id": 3835,
      "name": "Tres Algarrobos",
      "department": "Carlos Tejedor",
      "province": "Buenos Aires",
      "station_number": 87544,
      "forecast_reference_id": 3884,
      "lon": -62.7719,
      "lat": -35.199,
      "distance_km": 109.15,
      "station_name": "PEHUAJO AERO",
      "source": "SMN georef location search"
    },
    "3836": {
      "id": 3836,
      "name": "Colonia Tres Algarrobos",
      "department": "Carlos Tejedor",
      "province": "Buenos Aires",
      "station_number": 87544,
      "forecast_reference_id": 3884,
      "lon": -62.7055,
      "lat": -35.1982,
      "distance_km": 104.72,
      "station_name": "PEHUAJO AERO",
      "source": "SMN georef location search"
    },
    "3837": {
      "id": 3837,
      "name": "Colonia Sere",
      "department": "Carlos Tejedor",
      "province": "Buenos Aires",
      "station_number": 87544,
      "forecast_reference_id": 3884,
      "lon": -62.7276,
      "lat": -35.4373,
      "distance_km": 90.45,
      "station_name": "PEHUAJO AERO",
      "source": "SMN georef location search"
    },
    "3838": {
      "id": 3838,
      "name": "Tejedor Chico",
      "department": "Carlos Tejedor",
      "province": "Buenos Aires",
      "station_number": 87544,
      "forecast_reference_id": 3884,
      "lon": -62.4454,
      "lat": -35.4243,
      "distance_km": 70.34,
      "station_name": "PEHUAJO AERO",
      "source": "SMN georef location search"
    },
    "3839": {
      "id": 3839,
      "name": "Santa Ines",
      "department": "Carlos Tejedor",
      "province": "Buenos Aires",
      "station_number": 87544,
      "forecast_reference_id": 3884,
      "lon": -62.5863,
      "lat": -35.4022,
      "distance_km": 81.85,
      "station_name": "PEHUAJO AERO",
      "source": "SMN georef location search"
    },
    "3840": {
      "id": 3840,
      "name": "Carlos Tejedor",
      "department": "Carlos Tejedor",
      "province": "Buenos Aires",
      "station_number": 87544,
      "forecast_reference_id": 3884,
      "lon": -62.4184,
      "lat": -35.3912,
      "distance_km": 71.05,
      "station_name": "PEHUAJO AERO",
      "source": "SMN georef location search"
    },
    "3841": {
      "id": 3841,
      "name": "Timote Chico",
      "department": "Carlos Tejedor",
      "province": "Buenos Aires",
      "station_number": 87544,
      "forecast_reference_id": 3884,
      "lon": -62.2509,
      "lat": -35.3821,
      "distance_km": 62.01,
      "station_name": "PEHUAJO AERO",
      "source": "SMN georef location search"
    },
    "3842": {
      "id": 3842,
      "name": "Colonia San Agustín",
      "department": "Carlos Tejedor",
      "province": "Buenos Aires",
      "station_number": 87544,
      "forecast_reference_id": 3884,
      "lon": -62.1609,
      "lat": -35.2815,
      "distance_km": 67.78,
      "station_name": "PEHUAJO AERO",
      "source": "SMN georef location search"
    },
    "3843": {
      "id": 3843,
      "name": "Pasteur",
      "department": "Lincoln",
      "province": "Buenos Aires",
      "station_number": 87548,
      "forecast_reference_id": 4712,
      "lon": -62.2405,
      "lat": -35.1389,
      "distance_km": 136.27,
      "station_name": "JUNIN AERO",
      "source": "SMN georef location search"
    },
    "3844": {
      "id": 3844,
      "name": "La María Teresa",
      "department": "Lincoln",
      "province": "Buenos Aires",
      "station_number": 87548,
      "forecast_reference_id": 4712,
      "lon": -62.2073,
      "lat": -35.1691,
      "distance_km": 135.25,
      "station_name": "JUNIN AERO",
      "source": "SMN georef location search"
    },
    "3845": {
      "id": 3845,
      "name": "La María Angelita",
      "department": "Lincoln",
      "province": "Buenos Aires",
      "station_number": 87548,
      "forecast_reference_id": 4712,
      "lon": -62.1918,
      "lat": -35.182,
      "distance_km": 134.76,
      "station_name": "JUNIN AERO",
      "source": "SMN georef location search"
    },
    "3846": {
      "id": 3846,
      "name": "Carlos Salas",
      "department": "Lincoln",
      "province": "Buenos Aires",
      "station_number": 87548,
      "forecast_reference_id": 4712,
      "lon": -61.9888,
      "lat": -35.3949,
      "distance_km": 134.38,
      "station_name": "JUNIN AERO",
      "source": "SMN georef location search"
    },
    "3847": {
      "id": 3847,
      "name": "Las Toscas",
      "department": "Lincoln",
      "province": "Buenos Aires",
      "station_number": 87548,
      "forecast_reference_id": 4712,
      "lon": -61.8062,
      "lat": -35.3628,
      "distance_km": 120.28,
      "station_name": "JUNIN AERO",
      "source": "SMN georef location search"
    },
    "3848": {
      "id": 3848,
      "name": "La Josefina",
      "department": "Lincoln",
      "province": "Buenos Aires",
      "station_number": 87548,
      "forecast_reference_id": 4712,
      "lon": -61.8105,
      "lat": -35.303,
      "distance_km": 115.7,
      "station_name": "JUNIN AERO",
      "source": "SMN georef location search"
    },
    "3849": {
      "id": 3849,
      "name": "La Lucitana",
      "department": "Lincoln",
      "province": "Buenos Aires",
      "station_number": 87548,
      "forecast_reference_id": 4712,
      "lon": -61.652,
      "lat": -35.3392,
      "distance_km": 109.32,
      "station_name": "JUNIN AERO",
      "source": "SMN georef location search"
    },
    "3850": {
      "id": 3850,
      "name": "Coronel Martínez de Hoz",
      "department": "Lincoln",
      "province": "Buenos Aires",
      "station_number": 87548,
      "forecast_reference_id": 4712,
      "lon": -61.6137,
      "lat": -35.33,
      "distance_km": 106.42,
      "station_name": "JUNIN AERO",
      "source": "SMN georef location search"
    },
    "3851": {
      "id": 3851,
      "name": "10 de Agosto",
      "department": "Lincoln",
      "province": "Buenos Aires",
      "station_number": 87548,
      "forecast_reference_id": 4712,
      "lon": -61.6774,
      "lat": -35.3067,
      "distance_km": 107.92,
      "station_name": "JUNIN AERO",
      "source": "SMN georef location search"
    },
    "3852": {
      "id": 3852,
      "name": "La Carolina",
      "department": "Lincoln",
      "province": "Buenos Aires",
      "station_number": 87548,
      "forecast_reference_id": 4712,
      "lon": -61.6274,
      "lat": -35.2981,
      "distance_km": 104.34,
      "station_name": "JUNIN AERO",
      "source": "SMN georef location search"
    },
    "3853": {
      "id": 3853,
      "name": "La Maruja",
      "department": "Lincoln",
      "province": "Buenos Aires",
      "station_number": 87548,
      "forecast_reference_id": 4712,
      "lon": -61.6738,
      "lat": -35.1659,
      "distance_km": 96.13,
      "station_name": "JUNIN AERO",
      "source": "SMN georef location search"
    },
    "3854": {
      "id": 3854,
      "name": "Santa Isabel",
      "department": "Lincoln",
      "province": "Buenos Aires",
      "station_number": 87548,
      "forecast_reference_id": 4712,
      "lon": -61.841,
      "lat": -35.1415,
      "distance_km": 105.79,
      "station_name": "JUNIN AERO",
      "source": "SMN georef location search"
    },
    "3855": {
      "id": 3855,
      "name": "San Enrique",
      "department": "Lincoln",
      "province": "Buenos Aires",
      "station_number": 87548,
      "forecast_reference_id": 4712,
      "lon": -61.5879,
      "lat": -35.1645,
      "distance_km": 90.64,
      "station_name": "JUNIN AERO",
      "source": "SMN georef location search"
    },
    "3856": {
      "id": 3856,
      "name": "Vigilancia",
      "department": "Lincoln",
      "province": "Buenos Aires",
      "station_number": 87548,
      "forecast_reference_id": 4712,
      "lon": -61.678,
      "lat": -35.1113,
      "distance_km": 92.24,
      "station_name": "JUNIN AERO",
      "source": "SMN georef location search"
    },
    "3857": {
      "id": 3857,
      "name": "El Triunfo",
      "department": "Lincoln",
      "province": "Buenos Aires",
      "station_number": 87548,
      "forecast_reference_id": 4712,
      "lon": -61.5153,
      "lat": -35.0894,
      "distance_km": 80.01,
      "station_name": "JUNIN AERO",
      "source": "SMN georef location search"
    },
    "3867": {
      "id": 3867,
      "name": "Esteban de Luca",
      "department": "Carlos Tejedor",
      "province": "Buenos Aires",
      "station_number": 87544,
      "forecast_reference_id": 3884,
      "lon": -62.34,
      "lat": -35.6721,
      "distance_km": 47.29,
      "station_name": "PEHUAJO AERO",
      "source": "SMN georef location search"
    },
    "3873": {
      "id": 3873,
      "name": "Curaru",
      "department": "Carlos Tejedor",
      "province": "Buenos Aires",
      "station_number": 87544,
      "forecast_reference_id": 3884,
      "lon": -62.1953,
      "lat": -35.6405,
      "distance_km": 37.61,
      "station_name": "PEHUAJO AERO",
      "source": "SMN georef location search"
    },
    "3874": {
      "id": 3874,
      "name": "La Concordia",
      "department": "Lincoln",
      "province": "Buenos Aires",
      "station_number": 87548,
      "forecast_reference_id": 4712,
      "lon": -61.9361,
      "lat": -35.4441,
      "distance_km": 134.9,
      "station_name": "JUNIN AERO",
      "source": "SMN georef location search"
    },
    "3878": {
      "id": 3878,
      "name": "San Clemente",
      "department": "Carlos Casares",
      "province": "Buenos Aires",
      "station_number": 87544,
      "forecast_reference_id": 3884,
      "lon": -61.6225,
      "lat": -35.5722,
      "distance_km": 36.72,
      "station_name": "PEHUAJO AERO",
      "source": "SMN georef location search"
    },
    "3880": {
      "id": 3880,
      "name": "Smith",
      "department": "Carlos Casares",
      "province": "Buenos Aires",
      "station_number": 87544,
      "forecast_reference_id": 3884,
      "lon": -61.5962,
      "lat": -35.4963,
      "distance_km": 45.05,
      "station_name": "PEHUAJO AERO",
      "source": "SMN georef location search"
    },
    "3881": {
      "id": 3881,
      "name": "Mauricio Hirsch",
      "department": "Carlos Casares",
      "province": "Buenos Aires",
      "station_number": 87544,
      "forecast_reference_id": 3884,
      "lon": -61.5365,
      "lat": -35.5901,
      "distance_km": 40.36,
      "station_name": "PEHUAJO AERO",
      "source": "SMN georef location search"
    },
    "3882": {
      "id": 3882,
      "name": "Santo Tomás",
      "department": "Carlos Casares",
      "province": "Buenos Aires",
      "station_number": 87544,
      "forecast_reference_id": 3884,
      "lon": -61.5194,
      "lat": -35.6757,
      "distance_km": 35.82,
      "station_name": "PEHUAJO AERO",
      "source": "SMN georef location search"
    },
    "3890": {
      "id": 3890,
      "name": "El Porvenir",
      "department": "Pehuajó",
      "province": "Buenos Aires",
      "station_number": 87544,
      "forecast_reference_id": 3884,
      "lon": -61.6749,
      "lat": -35.9032,
      "distance_km": 18.08,
      "station_name": "PEHUAJO AERO",
      "source": "SMN georef location search"
    },
    "3891": {
      "id": 3891,
      "name": "Bellocq",
      "department": "Carlos Casares",
      "province": "Buenos Aires",
      "station_number": 87544,
      "forecast_reference_id": 3884,
      "lon": -61.5307,
      "lat": -35.9172,
      "distance_km": 30.9,
      "station_name": "PEHUAJO AERO",
      "source": "SMN georef location search"
    },
    "3892": {
      "id": 3892,
      "name": "Santa María",
      "department": "Carlos Casares",
      "province": "Buenos Aires",
      "station_number": 87544,
      "forecast_reference_id": 3884,
      "lon": -61.5432,
      "lat": -35.9354,
      "distance_km": 30.45,
      "station_name": "PEHUAJO AERO",
      "source": "SMN georef location search"
    },
    "3894": {
      "id": 3894,
      "name": "Timote",
      "department": "Carlos Tejedor",
      "province": "Buenos Aires",
      "station_number": 87544,
      "forecast_reference_id": 3884,
      "lon": -62.2196,
      "lat": -35.3469,
      "distance_km": 63.76,
      "station_name": "PEHUAJO AERO",
      "source": "SMN georef location search"
    },
    "3896": {
      "id": 3896,
      "name": "Roberts",
      "department": "Lincoln",
      "province": "Buenos Aires",
      "station_number": 87548,
      "forecast_reference_id": 4712,
      "lon": -61.9678,
      "lat": -35.1427,
      "distance_km": 115.21,
      "station_name": "JUNIN AERO",
      "source": "SMN georef location search"
    },
    "3897": {
      "id": 3897,
      "name": "El Recuerdo",
      "department": "Lincoln",
      "province": "Buenos Aires",
      "station_number": 87548,
      "forecast_reference_id": 4712,
      "lon": -61.4738,
      "lat": -35.0609,
      "distance_km": 75.14,
      "station_name": "JUNIN AERO",
      "source": "SMN georef location search"
    },
    "3898": {
      "id": 3898,
      "name": "La Alegría",
      "department": "9 de Julio",
      "province": "Buenos Aires",
      "station_number": 87550,
      "forecast_reference_id": 3989,
      "lon": -61.4553,
      "lat": -35.3165,
      "distance_km": 53.84,
      "station_name": "NUEVE DE JULIO",
      "source": "SMN georef location search"
    },
    "3899": {
      "id": 3899,
      "name": "La Esmeralda",
      "department": "Lincoln",
      "province": "Buenos Aires",
      "station_number": 87548,
      "forecast_reference_id": 4712,
      "lon": -61.4042,
      "lat": -35.2252,
      "distance_km": 86.24,
      "station_name": "JUNIN AERO",
      "source": "SMN georef location search"
    },
    "3900": {
      "id": 3900,
      "name": "El Torito",
      "department": "Lincoln",
      "province": "Buenos Aires",
      "station_number": 87548,
      "forecast_reference_id": 4712,
      "lon": -61.3244,
      "lat": -35.1736,
      "distance_km": 77.72,
      "station_name": "JUNIN AERO",
      "source": "SMN georef location search"
    },
    "3901": {
      "id": 3901,
      "name": "La Clarita",
      "department": "Lincoln",
      "province": "Buenos Aires",
      "station_number": 87548,
      "forecast_reference_id": 4712,
      "lon": -61.4086,
      "lat": -35.2527,
      "distance_km": 89.09,
      "station_name": "JUNIN AERO",
      "source": "SMN georef location search"
    },
    "3902": {
      "id": 3902,
      "name": "Santa Ines",
      "department": "9 de Julio",
      "province": "Buenos Aires",
      "station_number": 87550,
      "forecast_reference_id": 3989,
      "lon": -61.4229,
      "lat": -35.3425,
      "distance_km": 50.3,
      "station_name": "NUEVE DE JULIO",
      "source": "SMN georef location search"
    },
    "3903": {
      "id": 3903,
      "name": "Colonia Mauricio",
      "department": "Carlos Casares",
      "province": "Buenos Aires",
      "station_number": 87544,
      "forecast_reference_id": 3884,
      "lon": -61.4089,
      "lat": -35.5303,
      "distance_km": 53.4,
      "station_name": "PEHUAJO AERO",
      "source": "SMN georef location search"
    },
    "3904": {
      "id": 3904,
      "name": "La Pepa",
      "department": "Carlos Casares",
      "province": "Buenos Aires",
      "station_number": 87544,
      "forecast_reference_id": 3884,
      "lon": -61.3441,
      "lat": -35.6639,
      "distance_km": 50.6,
      "station_name": "PEHUAJO AERO",
      "source": "SMN georef location search"
    },
    "3905": {
      "id": 3905,
      "name": "San Esteban",
      "department": "Carlos Casares",
      "province": "Buenos Aires",
      "station_number": 87640,
      "forecast_reference_id": 3884,
      "lon": -61.3108,
      "lat": -35.9831,
      "distance_km": 31.13,
      "station_name": "BOLIVAR AERO",
      "source": "SMN georef location search"
    },
    "3906": {
      "id": 3906,
      "name": "La Angelita",
      "department": "Carlos Casares",
      "province": "Buenos Aires",
      "station_number": 87640,
      "forecast_reference_id": 3884,
      "lon": -61.3142,
      "lat": -35.912,
      "distance_km": 37.43,
      "station_name": "BOLIVAR AERO",
      "source": "SMN georef location search"
    },
    "3907": {
      "id": 3907,
      "name": "La Dorita",
      "department": "9 de Julio",
      "province": "Buenos Aires",
      "station_number": 87550,
      "forecast_reference_id": 3989,
      "lon": -61.2295,
      "lat": -35.5926,
      "distance_km": 35.84,
      "station_name": "NUEVE DE JULIO",
      "source": "SMN georef location search"
    },