{
  "schema_version": 1,
  "source": "SMN georef location search",
  "endpoint": "https://ws1.smn.gob.ar/v1/georef/location/search",
  "generated_at": "2026-06-29T05:03:00.754307+00:00",
  "count": 265,
  "locations": {
    "16": {
      "id": 16,
      "name": "Isla Diez",
      "department": "General Roca",
      "province": "Río Negro",
      "station_number": 87719,
      "forecast_reference_id": 19,
      "lon": -67.9223,
      "lat": -38.9938,
      "distance_km": 7.6,
      "station_name": "CIPOLLETTI",
      "source": "SMN georef location search"
    },
    "205": {
      "id": 205,
      "name": "San Juan",
      "department": "Iruyá",
      "province": "Salta",
      "station_number": 87007,
      "forecast_reference_id": 204,
      "lon": -65.2274,
      "lat": -22.7286,
      "distance_km": 79.19,
      "station_name": "LA QUIACA OBSERVATORIO",
      "source": "SMN georef location search"
    },
    "258": {
      "id": 258,
      "name": "Isla de Cañas",
      "department": "Iruyá",
      "province": "Salta",
      "station_number": 87016,
      "forecast_reference_id": 291,
      "lon": -64.6668,
      "lat": -22.8963,
      "distance_km": 44.99,
      "station_name": "ORAN AERO",
      "source": "SMN georef location search"
    },
    "299": {
      "id": 299,
      "name": "Playa Ancha",
      "department": "General José de San Martín",
      "province": "Salta",
      "station_number": 87022,
      "forecast_reference_id": 291,
      "lon": -63.6808,
      "lat": -22.1017,
      "distance_km": 58.25,
      "station_name": "TARTAGAL AERO",
      "source": "SMN georef location search"
    },
    "332": {
      "id": 332,
      "name": "El Retiro",
      "department": "General José de San Martín",
      "province": "Salta",
      "station_number": 87022,
      "forecast_reference_id": 291,
      "lon": -63.4204,
      "lat": -22.9242,
      "distance_km": 51.5,
      "station_name": "TARTAGAL AERO",
      "source": "SMN georef location search"
    },
    "552": {
      "id": 552,
      "name": "San Ignacio",
      "department": "Anta",
      "province": "Salta",
      "station_number": 87050,
      "forecast_reference_id": 1018,
      "lon": -63.4099,
      "lat": -24.6349,
      "distance_km": 185.93,
      "station_name": "METAN",
      "source": "SMN georef location search"
    },
    "721": {
      "id": 721,
      "name": "El Recreo",
      "department": "Rivadavia",
      "province": "Salta",
      "station_number": 87065,
      "forecast_reference_id": 794,
      "lon": -62.7368,
      "lat": -23.4614,
      "distance_km": 81.62,
      "station_name": "RIVADAVIA",
      "source": "SMN georef location search"
    },
    "763": {
      "id": 763,
      "name": "Planta Mina La Poma",
      "department": "Los Andes",
      "province": "Salta",
      "station_number": 87047,
      "forecast_reference_id": 765,
      "lon": -66.4428,
      "lat": -24.232,
      "distance_km": 119.17,
      "station_name": "SALTA AERO",
      "source": "SMN georef location search"
    },
    "929": {
      "id": 929,
      "name": "San Miguel",
      "department": "Cerrillos",
      "province": "Salta",
      "station_number": 87047,
      "forecast_reference_id": 454,
      "lon": -65.4052,
      "lat": -25.0802,
      "distance_km": 27.08,
      "station_name": "SALTA AERO",
      "source": "SMN georef location search"
    },
    "1014": {
      "id": 1014,
      "name": "El Retiro",
      "department": "Metán",
      "province": "Salta",
      "station_number": 87050,
      "forecast_reference_id": 1018,
      "lon": -64.8536,
      "lat": -25.4931,
      "distance_km": 12.49,
      "station_name": "METAN",
      "source": "SMN georef location search"
    },
    "1099": {
      "id": 1099,
      "name": "La Tabaquería",
      "department": "Rosario de La Frontera",
      "province": "Salta",
      "station_number": 87050,
      "forecast_reference_id": 1018,
      "lon": -65.0252,
      "lat": -25.7449,
      "distance_km": 25.0,
      "station_name": "METAN",
      "source": "SMN georef location search"
    },
    "1232": {
      "id": 1232,
      "name": "San Antonio",
      "department": "Candelaria",
      "province": "Salta",
      "station_number": 87050,
      "forecast_reference_id": 1018,
      "lon": -64.9543,
      "lat": -26.1923,
      "distance_km": 74.03,
      "station_name": "METAN",
      "source": "SMN georef location search"
    },
    "1275": {
      "id": 1275,
      "name": "El Retiro",
      "department": "Iglesia",
      "province": "San Juan",
      "station_number": 87305,
      "forecast_reference_id": 1298,
      "lon": -69.259,
      "lat": -30.2925,
      "distance_km": 50.53,
      "station_name": "JACHAL",
      "source": "SMN georef location search"
    },
    "1341": {
      "id": 1341,
      "name": "El Rincón",
      "department": "Albardón",
      "province": "San Juan",
      "station_number": 87311,
      "forecast_reference_id": 1425,
      "lon": -68.5645,
      "lat": -31.4157,
      "distance_km": 22.2,
      "station_name": "SAN JUAN AERO",
      "source": "SMN georef location search"
    },
    "1425": {
      "id": 1425,
      "name": "San Juan",
      "department": "Capital",
      "province": "San Juan",
      "station_number": 87311,
      "forecast_reference_id": 1425,
      "lon": -68.5112,
      "lat": -31.5189,
      "distance_km": 10.45,
      "station_name": "SAN JUAN AERO",
      "source": "SMN georef location search"
    },
    "1452": {
      "id": 1452,
      "name": "El Rincón",
      "department": "Caucete",
      "province": "San Juan",
      "station_number": 87311,
      "forecast_reference_id": 1449,
      "lon": -68.3234,
      "lat": -31.6496,
      "distance_km": 12.54,
      "station_name": "SAN JUAN AERO",
      "source": "SMN georef location search"
    },
    "1524": {
      "id": 1524,
      "name": "San Antonio",
      "department": "Belgrano",
      "province": "San Luis",
      "station_number": 87436,
      "forecast_reference_id": 1712,
      "lon": -66.8925,
      "lat": -32.6283,
      "distance_km": 87.73,
      "station_name": "SAN LUIS AERO",
      "source": "SMN georef location search"
    },
    "1548": {
      "id": 1548,
      "name": "El Rincón",
      "department": "Ayacucho",
      "province": "San Luis",
      "station_number": 87436,
      "forecast_reference_id": 1695,
      "lon": -66.1853,
      "lat": -32.6642,
      "distance_km": 69.45,
      "station_name": "SAN LUIS AERO",
      "source": "SMN georef location search"
    },
    "1584": {
      "id": 1584,
      "name": "La Reforma",
      "department": "Ayacucho",
      "province": "San Luis",
      "station_number": 87322,
      "forecast_reference_id": 1601,
      "lon": -66.265,
      "lat": -32.1794,
      "distance_km": 98.87,
      "station_name": "CHEPES",
      "source": "SMN georef location search"
    },
    "1603": {
      "id": 1603,
      "name": "San Miguel",
      "department": "Ayacucho",
      "province": "San Luis",
      "station_number": 87444,
      "forecast_reference_id": 1601,
      "lon": -65.8062,
      "lat": -32.1529,
      "distance_km": 64.11,
      "station_name": "SANTA ROSA DE CONLARA AERO",
      "source": "SMN georef location search"
    },
    "1615": {
      "id": 1615,
      "name": "El Rincón",
      "department": "Libertador General San Martín",
      "province": "San Luis",
      "station_number": 87444,
      "forecast_reference_id": 1695,
      "lon": -65.7332,
      "lat": -32.7363,
      "distance_km": 65.35,
      "station_name": "SANTA ROSA DE CONLARA AERO",
      "source": "SMN georef location search"
    },
    "1677": {
      "id": 1677,
      "name": "San Miguel",
      "department": "Chacabuco",
      "province": "San Luis",
      "station_number": 87444,
      "forecast_reference_id": 1670,
      "lon": -64.9795,
      "lat": -32.5454,
      "distance_km": 26.37,
      "station_name": "SANTA ROSA DE CONLARA AERO",
      "source": "SMN georef location search"
    },
    "1679": {
      "id": 1679,
      "name": "San Antonio",
      "department": "Chacabuco",
      "province": "San Luis",
      "station_number": 87444,
      "forecast_reference_id": 1670,
      "lon": -64.9898,
      "lat": -32.5791,
      "distance_km": 28.49,
      "station_name": "SANTA ROSA DE CONLARA AERO",
      "source": "SMN georef location search"
    },
    "1895": {
      "id": 1895,
      "name": "San Juan",
      "department": "General Obligado",
      "province": "Santa Fe",
      "station_number": 87270,
      "forecast_reference_id": 2006,
      "lon": -59.5837,
      "lat": -28.2291,
      "distance_km": 108.7,
      "station_name": "RECONQUISTA AERO",
      "source": "SMN georef location search"
    },
    "1996": {
      "id": 1996,
      "name": "Tres Lagunas",
      "department": "Vera",
      "province": "Santa Fe",
      "station_number": 87270,
      "forecast_reference_id": 2006,
      "lon": -60.7542,
      "lat": -29.5248,
      "distance_km": 108.93,
      "station_name": "RECONQUISTA AERO",
      "source": "SMN georef location search"
    },
    "2141": {
      "id": 2141,
      "name": "San Antonio",
      "department": "Castellanos",
      "province": "Santa Fe",
      "station_number": 87360,
      "forecast_reference_id": 2060,
      "lon": -61.7256,
      "lat": -31.2115,
      "distance_km": 21.84,
      "station_name": "RAFAELA AERO",
      "source": "SMN georef location search"
    },
    "2427": {
      "id": 2427,
      "name": "Lazzarino",
      "department": "General López",
      "province": "Santa Fe",
      "station_number": 87468,
      "forecast_reference_id": 2317,
      "lon": -62.4265,
      "lat": -34.1651,
      "distance_km": 68.69,
      "station_name": "VENADO TUERTO AERO",
      "source": "SMN georef location search"
    },
    "2468": {
      "id": 2468,
      "name": "San Ignacio",
      "department": "Copo",
      "province": "Santiago del Estero",
      "station_number": 87065,
      "forecast_reference_id": 2474,
      "lon": -62.9308,
      "lat": -25.6769,
      "distance_km": 165.29,
      "station_name": "RIVADAVIA",
      "source": "SMN georef location search"
    },
    "2472": {
      "id": 2472,
      "name": "San Antonio",
      "department": "Copo",
      "province": "Santiago del Estero",
      "station_number": 87065,
      "forecast_reference_id": 2474,
      "lon": -62.8643,
      "lat": -25.7776,
      "distance_km": 176.4,
      "station_name": "RIVADAVIA",
      "source": "SMN georef location search"
    },
    "2499": {
      "id": 2499,
      "name": "El Rincón",
      "department": "Jimenez",
      "province": "Santiago del Estero",
      "station_number": 87127,
      "forecast_reference_id": 2819,
      "lon": -64.7028,
      "lat": -26.9581,
      "distance_km": 64.91,
      "station_name": "TERMAS DE RIO HONDO AERO",
      "source": "SMN georef location search"
    },
    "2500": {
      "id": 2500,
      "name": "Villa María",
      "department": "Jimenez",
      "province": "Santiago del Estero",
      "station_number": 87127,
      "forecast_reference_id": 2819,
      "lon": -64.5939,
      "lat": -26.7187,
      "distance_km": 93.55,
      "station_name": "TERMAS DE RIO HONDO AERO",
      "source": "SMN georef location search"
    },
    "2522": {
      "id": 2522,
      "name": "San Juan",
      "department": "Pellegrini",
      "province": "Santiago del Estero",
      "station_number": 87121,
      "forecast_reference_id": 2474,
      "lon": -64.4241,
      "lat": -26.5105,
      "distance_km": 77.14,
      "station_name": "TUCUMAN AERO",
      "source": "SMN georef location search"
    },
    "2556": {
      "id": 2556,
      "name": "El Rincón del Carmen",
      "department": "Jimenez",
      "province": "Santiago del Estero",
      "station_number": 87127,
      "forecast_reference_id": 2819,
      "lon": -64.3275,
      "lat": -26.6994,
      "distance_km": 107.76,
      "station_name": "TERMAS DE RIO HONDO AERO",
      "source": "SMN georef location search"
    },
    "2630": {
      "id": 2630,
      "name": "La Constancia",
      "department": "Pellegrini",
      "province": "Santiago del Estero",
      "station_number": 87129,
      "forecast_reference_id": 2474,
      "lon": -63.8416,
      "lat": -26.5443,
      "distance_km": 141.61,
      "station_name": "SANTIAGO DEL ESTERO AERO",
      "source": "SMN georef location search"
    },
    "2816": {
      "id": 2816,
      "name": "Isla de Los Sotelos",
      "department": "Río Hondo",
      "province": "Santiago del Estero",
      "station_number": 87127,
      "forecast_reference_id": 2819,
      "lon": -64.6886,
      "lat": -27.4735,
      "distance_km": 24.55,
      "station_name": "TERMAS DE RIO HONDO AERO",
      "source": "SMN georef location search"
    },
    "2818": {
      "id": 2818,
      "name": "Isla Aragones",
      "department": "Río Hondo",
      "province": "Santiago del Estero",
      "station_number": 87127,
      "forecast_reference_id": 2819,
      "lon": -64.6464,
      "lat": -27.4529,
      "distance_km": 29.06,
      "station_name": "TERMAS DE RIO HONDO AERO",
      "source": "SMN georef location search"
    },
    "2859": {
      "id": 2859,
      "name": "El Rincón",
      "department": "Capital",
      "province": "Santiago del Estero",
      "station_number": 87129,
      "forecast_reference_id": 2954,
      "lon": -64.5293,
      "lat": -27.9096,
      "distance_km": 28.38,
      "station_name": "SANTIAGO DEL ESTERO AERO",
      "source": "SMN georef location search"
    },
    "2905": {
      "id": 2905,
      "name": "El Retiro",
      "department": "Jimenez",
      "province": "Santiago del Estero",
      "station_number": 87127,
      "forecast_reference_id": 2819,
      "lon": -64.4283,
      "lat": -27.0721,
      "distance_km": 69.45,
      "station_name": "TERMAS DE RIO HONDO AERO",
      "source": "SMN georef location search"
    },
    "2911": {
      "id": 2911,
      "name": "San Miguel",
      "department": "Jimenez",
      "province": "Santiago del Estero",
      "station_number": 87127,
      "forecast_reference_id": 2819,
      "lon": -64.2517,
      "lat": -27.065,
      "distance_km": 83.41,
      "station_name": "TERMAS DE RIO HONDO AERO",
      "source": "SMN georef location search"
    },
    "2975": {
      "id": 2975,
      "name": "San Juan",
      "department": "Banda",
      "province": "Santiago del Estero",
      "station_number": 87129,
      "forecast_reference_id": 2954,
      "lon": -64.2078,
      "lat": -27.6078,
      "distance_km": 18.65,
      "station_name": "SANTIAGO DEL ESTERO AERO",
      "source": "SMN georef location search"
    },
    "3002": {
      "id": 3002,
      "name": "Isla Corral",
      "department": "Banda",
      "province": "Santiago del Estero",
      "station_number": 87129,
      "forecast_reference_id": 2954,
      "lon": -64.1011,
      "lat": -27.7329,
      "distance_km": 19.74,
      "station_name": "SANTIAGO DEL ESTERO AERO",
      "source": "SMN georef location search"
    },
    "3021": {
      "id": 3021,
      "name": "San Antonio",
      "department": "Banda",
      "province": "Santiago del Estero",
      "station_number": 87129,
      "forecast_reference_id": 2954,
      "lon": -63.9464,
      "lat": -27.4287,
      "distance_km": 50.23,
      "station_name": "SANTIAGO DEL ESTERO AERO",
      "source": "SMN georef location search"
    },
    "3071": {
      "id": 3071,
      "name": "San Antonio",
      "department": "Figueroa",
      "province": "Santiago del Estero",
      "station_number": 87129,
      "forecast_reference_id": 2474,
      "lon": -63.6294,
      "lat": -27.4469,
      "distance_km": 74.46,
      "station_name": "SANTIAGO DEL ESTERO AERO",
      "source": "SMN georef location search"
    },
    "3118": {
      "id": 3118,
      "name": "El Rincón",
      "department": "Figueroa",
      "province": "Santiago del Estero",
      "station_number": 87129,
      "forecast_reference_id": 2474,
      "lon": -63.3279,
      "lat": -27.2944,
      "distance_km": 108.73,
      "station_name": "SANTIAGO DEL ESTERO AERO",
      "source": "SMN georef location search"
    },
    "3162": {
      "id": 3162,
      "name": "San Antonio",
      "department": "Brigadier Juan Felipe Ibarra",
      "province": "Santiago del Estero",
      "station_number": 87129,
      "forecast_reference_id": 3574,
      "lon": -63.1246,
      "lat": -27.7969,
      "distance_km": 115.93,
      "station_name": "SANTIAGO DEL ESTERO AERO",
      "source": "SMN georef location search"
    },
    "3236": {
      "id": 3236,
      "name": "El Lucero",
      "department": "Moreno",
      "province": "Santiago del Estero",
      "station_number": 87148,
      "forecast_reference_id": 3278,
      "lon": -61.7288,
      "lat": -27.3073,
      "distance_km": 138.03,
      "station_name": "PRESIDENCIA ROQUE SAENZ PEÑA AERO",
      "source": "SMN georef location search"
    },
    "3293": {
      "id": 3293,
      "name": "San Juan",
      "department": "Moreno",
      "province": "Santiago del Estero",
      "station_number": 87129,
      "forecast_reference_id": 2474,
      "lon": -62.8545,
      "lat": -27.6863,
      "distance_km": 142.73,
      "station_name": "SANTIAGO DEL ESTERO AERO",
      "source": "SMN georef location search"
    },
    "3370": {
      "id": 3370,
      "name": "San Juan",
      "department": "Choya",
      "province": "Santiago del Estero",
      "station_number": 87129,
      "forecast_reference_id": 2954,
      "lon": -64.743,
      "lat": -28.6028,
      "distance_km": 103.56,
      "station_name": "SANTIAGO DEL ESTERO AERO",
      "source": "SMN georef location search"
    },
    "3371": {
      "id": 3371,
      "name": "San Antonio",
      "department": "Choya",
      "province": "Santiago del Estero",
      "station_number": 87129,
      "forecast_reference_id": 2954,
      "lon": -64.6351,
      "lat": -28.6735,
      "distance_km": 107.0,
      "station_name": "SANTIAGO DEL ESTERO AERO",
      "source": "SMN georef location search"
    },
    "3470": {
      "id": 3470,
      "name": "San Marcos",
      "department": "Sarmiento",
      "province": "Santiago del Estero",
      "station_number": 87129,
      "forecast_reference_id": 3574,
      "lon": -63.6352,
      "lat": -28.0802,
      "distance_km": 74.7,
      "station_name": "SANTIAGO DEL ESTERO AERO",
      "source": "SMN georef location search"
    },
    "3538": {
      "id": 3538,
      "name": "San Antonio",
      "department": "Avellaneda",
      "province": "Santiago del Estero",
      "station_number": 87129,
      "forecast_reference_id": 3574,
      "lon": -63.178,
      "lat": -28.6021,
      "distance_km": 144.75,
      "station_name": "SANTIAGO DEL ESTERO AERO",
      "source": "SMN georef location search"
    },
    "3645": {
      "id": 3645,
      "name": "San Juan",
      "department": "Ojo de Agua",
      "province": "Santiago del Estero",
      "station_number": 87129,
      "forecast_reference_id": 2954,
      "lon": -63.8306,
      "lat": -29.2894,
      "distance_km": 176.17,
      "station_name": "SANTIAGO DEL ESTERO AERO",
      "source": "SMN georef location search"
    },
    "3690": {
      "id": 3690,
      "name": "San Juan",
      "department": "Quebrachos",
      "province": "Santiago del Estero",
      "station_number": 87244,
      "forecast_reference_id": 3574,
      "lon": -63.3402,
      "lat": -29.4518,
      "distance_km": 62.76,
      "station_name": "VILLA DE MARIA DEL RIO SECO",
      "source": "SMN georef location search"
    },
    "3741": {
      "id": 3741,
      "name": "Tres Lagunas",
      "department": "Belgrano",
      "province": "Santiago del Estero",
      "station_number": 87257,
      "forecast_reference_id": 3574,
      "lon": -62.0383,
      "lat": -29.3624,
      "distance_km": 57.74,
      "station_name": "CERES AERO",
      "source": "SMN georef location search"
    },
    "3839": {
      "id": 3839,
      "name": "Santa Ines",
      "department": "Carlos Tejedor",
      "province": "Buenos Aires",
      "station_number": 87544,
      "forecast_reference_id": 3884,
      "lon": -62.5863,
      "lat": -35.4022,
      "distance_km": 81.85,
      "station_name": "PEHUAJO AERO",
      "source": "SMN georef location search"
    },
    "3855": {
      "id": 3855,
      "name": "San Enrique",
      "department": "Lincoln",
      "province": "Buenos Aires",
      "station_number": 87548,
      "forecast_reference_id": 4712,
      "lon": -61.5879,
      "lat": -35.1645,
      "distance_km": 90.64,
      "station_name": "JUNIN AERO",
      "source": "SMN georef location search"
    },
    "3898": {
      "id": 3898,
      "name": "La Alegría",
      "department": "9 de Julio",
      "province": "Buenos Aires",
      "station_number": 87550,
      "forecast_reference_id": 3989,
      "lon": -61.4553,
      "lat": -35.3165,
      "distance_km": 53.84,
      "station_name": "NUEVE DE JULIO",
      "source": "SMN georef location search"
    },
    "3902": {
      "id": 3902,
      "name": "Santa Ines",
      "department": "9 de Julio",
      "province": "Buenos Aires",
      "station_number": 87550,
      "forecast_reference_id": 3989,
      "lon": -61.4229,
      "lat": -35.3425,
      "distance_km": 50.3,
      "station_name": "NUEVE DE JULIO",
      "source": "SMN georef location search"
    },
    "3907": {
      "id": 3907,
      "name": "La Dorita",
      "department": "9 de Julio",
      "province": "Buenos Aires",
      "station_number": 87550,
      "forecast_reference_id": 3989,
      "lon": -61.2295,
      "lat": -35.5926,
      "distance_km": 35.84,
      "station_name": "NUEVE DE JULIO",
      "source": "SMN georef location search"
    },
    "3908": {
      "id": 3908,
      "name": "La Lucía",
      "department": "9 de Julio",
      "province": "Buenos Aires",
      "station_number": 87550,
      "forecast_reference_id": 3989,
      "lon": -61.2828,
      "lat": -35.1961,
      "distance_km": 45.33,
      "station_name": "NUEVE DE JULIO",
      "source": "SMN georef location search"
    },
    "3909": {
      "id": 3909,
      "name": "Las Bayas",
      "department": "9 de Julio",
      "province": "Buenos Aires",
      "station_number": 87550,
      "forecast_reference_id": 3989,
      "lon": -61.2859,
      "lat": -35.2274,
      "distance_km": 43.59,
      "station_name": "NUEVE DE JULIO",
      "source": "SMN georef location search"
    },
    "3910": {
      "id": 3910,
      "name": "La Taba",
      "department": "9 de Julio",
      "province": "Buenos Aires",
      "station_number": 87550,
      "forecast_reference_id": 3989,
      "lon": -61.0998,
      "lat": -35.3187,
      "distance_km": 23.88,
      "station_name": "NUEVE DE JULIO",
      "source": "SMN georef location search"
    },
    "3911": {
      "id": 3911,
      "name": "Las Marias",
      "department": "9 de Julio",
      "province": "Buenos Aires",
      "station_number": 87550,
      "forecast_reference_id": 3989,
      "lon": -61.133,
      "lat": -35.3298,
      "distance_km": 25.83,
      "station_name": "NUEVE DE JULIO",
      "source": "SMN georef location search"
    },
    "3912": {
      "id": 3912,
      "name": "Galo Llorente",
      "department": "9 de Julio",
      "province": "Buenos Aires",
      "station_number": 87550,
      "forecast_reference_id": 3989,
      "lon": -61.1198,
      "lat": -35.4901,
      "distance_km": 22.33,
      "station_name": "NUEVE DE JULIO",
      "source": "SMN georef location search"
    },
    "3913": {
      "id": 3913,
      "name": "San Juan",
      "department": "9 de Julio",
      "province": "Buenos Aires",
      "station_number": 87550,
      "forecast_reference_id": 3989,
      "lon": -61.0942,
      "lat": -35.2982,
      "distance_km": 24.82,
      "station_name": "NUEVE DE JULIO",
      "source": "SMN georef location search"
    },
    "3914": {
      "id": 3914,
      "name": "La Colorada",
      "department": "9 de Julio",
      "province": "Buenos Aires",
      "station_number": 87550,
      "forecast_reference_id": 3989,
      "lon": -60.9644,
      "lat": -35.3714,
      "distance_km": 10.6,
      "station_name": "NUEVE DE JULIO",
      "source": "SMN georef location search"
    },
    "3915": {
      "id": 3915,
      "name": "Colonia La Rural",
      "department": "9 de Julio",
      "province": "Buenos Aires",
      "station_number": 87550,
      "forecast_reference_id": 3989,
      "lon": -60.9675,
      "lat": -35.7612,
      "distance_km": 36.58,
      "station_name": "NUEVE DE JULIO",
      "source": "SMN georef location search"
    },
    "3918": {
      "id": 3918,
      "name": "El Socabon",
      "department": "9 de Julio",
      "province": "Buenos Aires",
      "station_number": 87550,
      "forecast_reference_id": 3989,
      "lon": -60.8517,
      "lat": -35.3896,
      "distance_km": 6.13,
      "station_name": "NUEVE DE JULIO",
      "source": "SMN georef location search"
    },
    "3920": {
      "id": 3920,
      "name": "San Enrique",
      "department": "9 de Julio",
      "province": "Buenos Aires",
      "station_number": 87550,
      "forecast_reference_id": 3989,
      "lon": -60.7307,
      "lat": -35.7034,
      "distance_km": 32.38,
      "station_name": "NUEVE DE JULIO",
      "source": "SMN georef location search"
    },
    "3921": {
      "id": 3921,
      "name": "San Antonio",
      "department": "9 de Julio",
      "province": "Buenos Aires",
      "station_number": 87550,
      "forecast_reference_id": 3989,
      "lon": -60.7474,
      "lat": -35.7189,
      "distance_km": 33.36,
      "station_name": "NUEVE DE JULIO",
      "source": "SMN georef location search"
    },
    "3923": {
      "id": 3923,
      "name": "El Recluta",
      "department": "25 de Mayo",
      "province": "Buenos Aires",
      "station_number": 87550,
      "forecast_reference_id": 3989,
      "lon": -60.6232,
      "lat": -35.7888,
      "distance_km": 45.34,
      "station_name": "NUEVE DE JULIO",
      "source": "SMN georef location search"
    },
    "3925": {
      "id": 3925,
      "name": "La Reforma",
      "department": "25 de Mayo",
      "province": "Buenos Aires",
      "station_number": 87550,
      "forecast_reference_id": 3989,
      "lon": -60.5234,
      "lat": -35.7745,
      "distance_km": 49.41,
      "station_name": "NUEVE DE JULIO",
      "source": "SMN georef location search"
    },
    "3926": {
      "id": 3926,
      "name": "El Retiro",
      "department": "25 de Mayo",
      "province": "Buenos Aires",
      "station_number": 87550,
      "forecast_reference_id": 3989,
      "lon": -60.5518,
      "lat": -35.8228,
      "distance_km": 52.03,
      "station_name": "NUEVE DE JULIO",
      "source": "SMN georef location search"
    },
    "3927": {
      "id": 3927,
      "name": "Haras Don Santiago",
      "department": "25 de Mayo",
      "province": "Buenos Aires",
      "station_number": 87550,
      "forecast_reference_id": 3989,
      "lon": -60.347,
      "lat": -35.5002,
      "distance_km": 49.02,
      "station_name": "NUEVE DE JULIO",
      "source": "SMN georef location search"
    },
    "3929": {
      "id": 3929,
      "name": "La Uracaria",
      "department": "Alberti",
      "province": "Buenos Aires",
      "station_number": 87550,
      "forecast_reference_id": 3989,
      "lon": -60.2254,
      "lat": -35.0017,
      "distance_km": 76.98,
      "station_name": "NUEVE DE JULIO",
      "source": "SMN georef location search"
    },
    "3930": {
      "id": 3930,
      "name": "Villa Eugenio",
      "department": "25 de Mayo",
      "province": "Buenos Aires",
      "station_number": 87550,
      "forecast_reference_id": 3989,
      "lon": -60.2987,
      "lat": -35.2534,
      "distance_km": 56.87,
      "station_name": "NUEVE DE JULIO",
      "source": "SMN georef location search"
    },
    "3931": {
      "id": 3931,
      "name": "El Terete",
      "department": "25 de Mayo",
      "province": "Buenos Aires",
      "station_number": 87550,
      "forecast_reference_id": 3989,
      "lon": -60.3224,
      "lat": -35.3733,
      "distance_km": 51.34,
      "station_name": "NUEVE DE JULIO",
      "source": "SMN georef location search"
    },
    "3932": {
      "id": 3932,
      "name": "La Chacra",
      "department": "25 de Mayo",
      "province": "Buenos Aires",
      "station_number": 87550,
      "forecast_reference_id": 3989,
      "lon": -60.2712,
      "lat": -35.6577,
      "distance_km": 60.46,
      "station_name": "NUEVE DE JULIO",
      "source": "SMN georef location search"
    },
    "3933": {
      "id": 3933,
      "name": "La Querencia",
      "department": "25 de Mayo",
      "province": "Buenos Aires",
      "station_number": 87550,
      "forecast_reference_id": 3989,
      "lon": -60.2915,
      "lat": -35.7139,
      "distance_km": 61.6,
      "station_name": "NUEVE DE JULIO",
      "source": "SMN georef location search"
    },
    "3934": {
      "id": 3934,
      "name": "El Lucero",
      "department": "25 de Mayo",
      "province": "Buenos Aires",
      "station_number": 87550,
      "forecast_reference_id": 3989,
      "lon": -60.252,
      "lat": -35.7136,
      "distance_km": 64.72,
      "station_name": "NUEVE DE JULIO",
      "source": "SMN georef location search"
    },
    "3935": {
      "id": 3935,
      "name": "Las Dos Marias",
      "department": "25 de Mayo",
      "province": "Buenos Aires",
      "station_number": 87550,
      "forecast_reference_id": 3989,
      "lon": -60.2655,
      "lat": -35.7465,
      "distance_km": 65.46,
      "station_name": "NUEVE DE JULIO",
      "source": "SMN georef location search"
    },
    "3941": {
      "id": 3941,
      "name": "El Recreo",
      "department": "25 de Mayo",
      "province": "Buenos Aires",
      "station_number": 87550,
      "forecast_reference_id": 3989,
      "lon": -60.1871,
      "lat": -35.6524,
      "distance_km": 67.31,
      "station_name": "NUEVE DE JULIO",
      "source": "SMN georef location search"
    },
    "3942": {
      "id": 3942,
      "name": "El Chingolo",
      "department": "25 de Mayo",
      "province": "Buenos Aires",
      "station_number": 87550,
      "forecast_reference_id": 3989,
      "lon": -60.1727,
      "lat": -35.515,
      "distance_km": 64.91,
      "station_name": "NUEVE DE JULIO",
      "source": "SMN georef location search"
    },
    "3943": {
      "id": 3943,
      "name": "Cabaña",
      "department": "25 de Mayo",
      "province": "Buenos Aires",
      "station_number": 87550,
      "forecast_reference_id": 3989,
      "lon": -60.1431,
      "lat": -35.2396,
      "distance_km": 70.71,
      "station_name": "NUEVE DE JULIO",
      "source": "SMN georef location search"
    },
    "3944": {
      "id": 3944,
      "name": "El Rincón",
      "department": "Alberti",
      "province": "Buenos Aires",
      "station_number": 87550,
      "forecast_reference_id": 3989,
      "lon": -60.1639,
      "lat": -35.0033,
      "distance_km": 81.3,
      "station_name": "NUEVE DE JULIO",
      "source": "SMN georef location search"
    },
    "3946": {
      "id": 3946,
      "name": "Cabaña La Florida",
      "department": "Chivilcoy",
      "province": "Buenos Aires",
      "station_number": 87550,
      "forecast_reference_id": 3989,
      "lon": -60.043,
      "lat": -35.0721,
      "distance_km": 86.52,
      "station_name": "NUEVE DE JULIO",
      "source": "SMN georef location search"
    },
    "3947": {
      "id": 3947,
      "name": "San Miguel",
      "department": "25 de Mayo",
      "province": "Buenos Aires",
      "station_number": 87563,
      "forecast_reference_id": 4129,
      "lon": -60.0863,
      "lat": -35.6833,
      "distance_km": 94.49,
      "station_name": "LAS FLORES",
      "source": "SMN georef location search"
    },
    "3951": {
      "id": 3951,
      "name": "El Jabalí",
      "department": "9 de Julio",
      "province": "Buenos Aires",
      "station_number": 87550,
      "forecast_reference_id": 3989,
      "lon": -61.3469,
      "lat": -35.4436,
      "distance_km": 42.22,
      "station_name": "NUEVE DE JULIO",
      "source": "SMN georef location search"
    },
    "3952": {
      "id": 3952,
      "name": "Mamaguita",
      "department": "25 de Mayo",
      "province": "Buenos Aires",
      "station_number": 87550,
      "forecast_reference_id": 3989,
      "lon": -60.2248,
      "lat": -35.6879,
      "distance_km": 65.66,
      "station_name": "NUEVE DE JULIO",
      "source": "SMN georef location search"
    },
    "3953": {
      "id": 3953,
      "name": "Pueblitos",
      "department": "25 de Mayo",
      "province": "Buenos Aires",
      "station_number": 87550,
      "forecast_reference_id": 3989,
      "lon": -60.109,
      "lat": -35.6369,
      "distance_km": 73.45,
      "station_name": "NUEVE DE JULIO",
      "source": "SMN georef location search"
    },
    "3954": {
      "id": 3954,
      "name": "Isla",
      "department": "25 de Mayo",
      "province": "Buenos Aires",
      "station_number": 87550,
      "forecast_reference_id": 3989,
      "lon": -60.3559,
      "lat": -35.5669,
      "distance_km": 49.79,
      "station_name": "NUEVE DE JULIO",
      "source": "SMN georef location search"
    },
    "3955": {
      "id": 3955,
      "name": "Santos Unzué",
      "department": "9 de Julio",
      "province": "Buenos Aires",
      "station_number": 87550,
      "forecast_reference_id": 3989,
      "lon": -60.8604,
      "lat": -35.7441,
      "distance_km": 33.91,
      "station_name": "NUEVE DE JULIO",
      "source": "SMN georef location search"
    },
    "3956": {
      "id": 3956,
      "name": "Ortiz de Rozas",
      "department": "25 de Mayo",
      "province": "Buenos Aires",
      "station_number": 87550,
      "forecast_reference_id": 3989,
      "lon": -60.3781,
      "lat": -35.4028,
      "distance_km": 45.93,
      "station_name": "NUEVE DE JULIO",
      "source": "SMN georef location search"
    },
    "3957": {
      "id": 3957,
      "name": "Araujo",
      "department": "25 de Mayo",
      "province": "Buenos Aires",
      "station_number": 87550,
      "forecast_reference_id": 3989,
      "lon": -60.3263,
      "lat": -35.3052,
      "distance_km": 52.63,
      "station_name": "NUEVE DE JULIO",
      "source": "SMN georef location search"
    },
    "3958": {
      "id": 3958,
      "name": "Emita",
      "department": "Alberti",
      "province": "Buenos Aires",
      "station_number": 87550,
      "forecast_reference_id": 3989,
      "lon": -60.2415,
      "lat": -35.1579,
      "distance_km": 66.07,
      "station_name": "NUEVE DE JULIO",
      "source": "SMN georef location search"
    },
    "3959": {
      "id": 3959,
      "name": "Presidente Quintana",
      "department": "Alberti",
      "province": "Buenos Aires",
      "station_number": 87550,
      "forecast_reference_id": 3989,
      "lon": -60.189,
      "lat": -35.2216,
      "distance_km": 67.46,
      "station_name": "NUEVE DE JULIO",
      "source": "SMN georef location search"
    },
    "3960": {
      "id": 3960,
      "name": "Palantelen",
      "department": "Alberti",
      "province": "Buenos Aires",
      "station_number": 87550,
      "forecast_reference_id": 3989,
      "lon": -60.3343,
      "lat": -35.1659,
      "distance_km": 58.3,
      "station_name": "NUEVE DE JULIO",
      "source": "SMN georef location search"
    },
    "3962": {
      "id": 3962,
      "name": "Marcelino Ugarte",
      "department": "9 de Julio",
      "province": "Buenos Aires",
      "station_number": 87550,
      "forecast_reference_id": 3989,
      "lon": -60.7454,
      "lat": -35.3529,
      "distance_km": 15.65,
      "station_name": "NUEVE DE JULIO",
      "source": "SMN georef location search"
    },
    "3964": {
      "id": 3964,
      "name": "Larrea",
      "department": "Alberti",
      "province": "Buenos Aires",
      "station_number": 87550,
      "forecast_reference_id": 3989,
      "lon": -60.3665,
      "lat": -35.0502,
      "distance_km": 63.73,
      "station_name": "NUEVE DE JULIO",
      "source": "SMN georef location search"
    },
    "3965": {
      "id": 3965,
      "name": "Ramón J. Neild",
      "department": "9 de Julio",
      "province": "Buenos Aires",
      "station_number": 87550,
      "forecast_reference_id": 3989,
      "lon": -61.2225,
      "lat": -35.2196,
      "distance_km": 39.39,
      "station_name": "NUEVE DE JULIO",
      "source": "SMN georef location search"
    },
    "3966": {
      "id": 3966,
      "name": "El Tejar",
      "department": "9 de Julio",
      "province": "Buenos Aires",
      "station_number": 87550,
      "forecast_reference_id": 3989,
      "lon": -61.0439,
      "lat": -35.2214,
      "distance_km": 28.28,
      "station_name": "NUEVE DE JULIO",
      "source": "SMN georef location search"
    },
    "3967": {
      "id": 3967,
      "name": "Fauzon",
      "department": "9 de Julio",
      "province": "Buenos Aires",
      "station_number": 87550,
      "forecast_reference_id": 3989,
      "lon": -61.0049,
      "lat": -35.3892,
      "distance_km": 12.46,
      "station_name": "NUEVE DE JULIO",
      "source": "SMN georef location search"
    },
    "3969": {
      "id": 3969,
      "name": "Mulcahy",
      "department": "9 de Julio",
      "province": "Buenos Aires",
      "station_number": 87550,
      "forecast_reference_id": 3989,
      "lon": -60.7103,
      "lat": -35.4945,
      "distance_km": 16.75,
      "station_name": "NUEVE DE JULIO",
      "source": "SMN georef location search"
    },
    "3970": {
      "id": 3970,
      "name": "Gerente Cilley",
      "department": "9 de Julio",
      "province": "Buenos Aires",
      "station_number": 87550,
      "forecast_reference_id": 3989,
      "lon": -60.497,
      "lat": -35.4864,
      "distance_km": 35.33,
      "station_name": "NUEVE DE JULIO",
      "source": "SMN georef location search"
    },
    "3971": {
      "id": 3971,
      "name": "Santiago Garbarini",
      "department": "25 de Mayo",
      "province": "Buenos Aires",
      "station_number": 87550,
      "forecast_reference_id": 3989,
      "lon": -60.3847,
      "lat": -35.4828,
      "distance_km": 45.39,
      "station_name": "NUEVE DE JULIO",
      "source": "SMN georef location search"
    },
    "3972": {
      "id": 3972,
      "name": "Blas Durañona",
      "department": "25 de Mayo",
      "province": "Buenos Aires",
      "station_number": 87550,
      "forecast_reference_id": 3989,
      "lon": -60.1343,
      "lat": -35.4805,
      "distance_km": 68.02,
      "station_name": "NUEVE DE JULIO",
      "source": "SMN georef location search"
    },
    "3974": {
      "id": 3974,
      "name": "Anderson",
      "department": "25 de Mayo",
      "province": "Buenos Aires",
      "station_number": 87550,
      "forecast_reference_id": 3989,
      "lon": -60.2608,
      "lat": -35.2796,
      "distance_km": 59.16,
      "station_name": "NUEVE DE JULIO",
      "source": "SMN georef location search"
    },
    "3976": {
      "id": 3976,
      "name": "Del Valle",
      "department": "25 de Mayo",
      "province": "Buenos Aires",
      "station_number": 87550,
      "forecast_reference_id": 3989,
      "lon": -60.7279,
      "lat": -35.8976,
      "distance_km": 52.76,
      "station_name": "NUEVE DE JULIO",
      "source": "SMN georef location search"
    },
    "3977": {
      "id": 3977,
      "name": "Baudrix",
      "department": "Alberti",
      "province": "Buenos Aires",
      "station_number": 87550,
      "forecast_reference_id": 3989,
      "lon": -60.303,
      "lat": -35.2373,
      "distance_km": 57.19,
      "station_name": "NUEVE DE JULIO",
      "source": "SMN georef location search"
    },
    "3984": {
      "id": 3984,
      "name": "Pla",
      "department": "Alberti",
      "province": "Buenos Aires",
      "station_number": 87550,
      "forecast_reference_id": 3989,
      "lon": -60.2223,
      "lat": -35.1235,
      "distance_km": 69.47,
      "station_name": "NUEVE DE JULIO",
      "source": "SMN georef location search"
    },
    "3985": {
      "id": 3985,
      "name": "Villa Grisolia",
      "department": "Alberti",
      "province": "Buenos Aires",
      "station_number": 87550,
      "forecast_reference_id": 3989,
      "lon": -60.0692,
      "lat": -35.1099,
      "distance_km": 82.46,
      "station_name": "NUEVE DE JULIO",
      "source": "SMN georef location search"
    },
    "3986": {
      "id": 3986,
      "name": "Gobernador Ugarte",
      "department": "25 de Mayo",
      "province": "Buenos Aires",
      "station_number": 87550,
      "forecast_reference_id": 3989,
      "lon": -60.0797,
      "lat": -35.1654,
      "distance_km": 79.02,
      "station_name": "NUEVE DE JULIO",
      "source": "SMN georef location search"
    },
    "3987": {
      "id": 3987,
      "name": "Carlos María Naon",
      "department": "9 de Julio",
      "province": "Buenos Aires",
      "station_number": 87550,
      "forecast_reference_id": 3989,
      "lon": -60.827,
      "lat": -35.2349,
      "distance_km": 23.19,
      "station_name": "NUEVE DE JULIO",
      "source": "SMN georef location search"
    },
    "3990": {
      "id": 3990,
      "name": "Patricios",
      "department": "9 de Julio",
      "province": "Buenos Aires",
      "station_number": 87550,
      "forecast_reference_id": 3989,
      "lon": -60.7186,
      "lat": -35.4408,
      "distance_km": 14.83,
      "station_name": "NUEVE DE JULIO",
      "source": "SMN georef location search"
    },
    "3991": {
      "id": 3991,
      "name": "Villa General Fournier",
      "department": "9 de Julio",
      "province": "Buenos Aires",
      "station_number": 87550,
      "forecast_reference_id": 3989,
      "lon": -60.8727,
      "lat": -35.4979,
      "distance_km": 6.59,
      "station_name": "NUEVE DE JULIO",
      "source": "SMN georef location search"
    },
    "3992": {
      "id": 3992,
      "name": "La Norumbega",
      "department": "9 de Julio",
      "province": "Buenos Aires",
      "station_number": 87550,
      "forecast_reference_id": 3989,
      "lon": -60.7921,
      "lat": -35.5352,
      "distance_km": 13.43,
      "station_name": "NUEVE DE JULIO",
      "source": "SMN georef location search"
    },
    "3993": {
      "id": 3993,
      "name": "Morea",
      "department": "9 de Julio",
      "province": "Buenos Aires",
      "station_number": 87550,
      "forecast_reference_id": 3989,
      "lon": -60.5625,
      "lat": -35.5539,
      "distance_km": 31.66,
      "station_name": "NUEVE DE JULIO",
      "source": "SMN georef location search"
    },
    "3994": {
      "id": 3994,
      "name": "San Enrique",
      "department": "25 de Mayo",
      "province": "Buenos Aires",
      "station_number": 87550,
      "forecast_reference_id": 3989,
      "lon": -60.3541,
      "lat": -35.7818,
      "distance_km": 61.1,
      "station_name": "NUEVE DE JULIO",
      "source": "SMN georef location search"
    },
    "3995": {
      "id": 3995,
      "name": "Dudignac",
      "department": "9 de Julio",
      "province": "Buenos Aires",
      "station_number": 87550,
      "forecast_reference_id": 3989,
      "lon": -60.7023,
      "lat": -35.6498,
      "distance_km": 28.5,
      "station_name": "NUEVE DE JULIO",
      "source": "SMN georef location search"
    },
    "3996": {
      "id": 3996,
      "name": "Mosconi",
      "department": "25 de Mayo",
      "province": "Buenos Aires",
      "station_number": 87550,
      "forecast_reference_id": 3989,
      "lon": -60.5531,
      "lat": -35.739,
      "distance_km": 44.68,
      "station_name": "NUEVE DE JULIO",
      "source": "SMN georef location search"
    },
    "3997": {
      "id": 3997,
      "name": "Valdes",
      "department": "25 de Mayo",
      "province": "Buenos Aires",
      "station_number": 87550,
      "forecast_reference_id": 3989,
      "lon": -60.4651,
      "lat": -35.6483,
      "distance_km": 44.36,
      "station_name": "NUEVE DE JULIO",
      "source": "SMN georef location search"
    },
    "4004": {
      "id": 4004,
      "name": "Alfredo Demarchi",
      "department": "9 de Julio",
      "province": "Buenos Aires",
      "station_number": 87550,
      "forecast_reference_id": 3989,
      "lon": -61.4086,
      "lat": -35.2942,
      "distance_km": 50.49,
      "station_name": "NUEVE DE JULIO",
      "source": "SMN georef location search"
    },
    "4006": {
      "id": 4006,
      "name": "La Niña",
      "department": "9 de Julio",
      "province": "Buenos Aires",
      "station_number": 87550,
      "forecast_reference_id": 3989,
      "lon": -61.2071,
      "lat": -35.4074,
      "distance_km": 29.74,
      "station_name": "NUEVE DE JULIO",
      "source": "SMN georef location search"
    },
    "4007": {
      "id": 4007,
      "name": "12 de Octubre",
      "department": "9 de Julio",
      "province": "Buenos Aires",
      "station_number": 87550,
      "forecast_reference_id": 3989,
      "lon": -60.9175,
      "lat": -35.6068,
      "distance_km": 18.9,
      "station_name": "NUEVE DE JULIO",
      "source": "SMN georef location search"
    },
    "4008": {
      "id": 4008,
      "name": "Manuel B. Gonnet",
      "department": "9 de Julio",
      "province": "Buenos Aires",
      "station_number": 87550,
      "forecast_reference_id": 3989,
      "lon": -61.0008,
      "lat": -35.5186,
      "distance_km": 13.94,
      "station_name": "NUEVE DE JULIO",
      "source": "SMN georef location search"
    },
    "4032": {
      "id": 4032,
      "name": "Martín Berraondo",
      "department": "25 de Mayo",
      "province": "Buenos Aires",
      "station_number": 87550,
      "forecast_reference_id": 3989,
      "lon": -59.9483,
      "lat": -35.3152,
      "distance_km": 85.94,
      "station_name": "NUEVE DE JULIO",
      "source": "SMN georef location search"
    },
    "4033": {
      "id": 4033,
      "name": "Ernestina",
      "department": "25 de Mayo",
      "province": "Buenos Aires",
      "station_number": 87550,
      "forecast_reference_id": 3989,
      "lon": -59.5562,
      "lat": -35.2696,
      "distance_km": 121.95,
      "station_name": "NUEVE DE JULIO",
      "source": "SMN georef location search"
    },
    "4048": {
      "id": 4048,
      "name": "Norberto de La Riestra",
      "department": "25 de Mayo",
      "province": "Buenos Aires",
      "station_number": 87550,
      "forecast_reference_id": 3989,
      "lon": -59.7713,
      "lat": -35.2741,
      "distance_km": 102.59,
      "station_name": "NUEVE DE JULIO",
      "source": "SMN georef location search"
    },
    "4049": {
      "id": 4049,
      "name": "Pedernales",
      "department": "25 de Mayo",
      "province": "Buenos Aires",
      "station_number": 87550,
      "forecast_reference_id": 3989,
      "lon": -59.6301,
      "lat": -35.2692,
      "distance_km": 115.33,
      "station_name": "NUEVE DE JULIO",
      "source": "SMN georef location search"
    },
    "4060": {
      "id": 4060,
      "name": "Maza",
      "department": "Adolfo Alsina",
      "province": "Buenos Aires",
      "station_number": 87540,
      "forecast_reference_id": 3864,
      "lon": -63.3389,
      "lat": -36.8,
      "distance_km": 107.36,
      "station_name": "TRENQUE LAUQUEN",
      "source": "SMN georef location search"
    },
    "4061": {
      "id": 4061,
      "name": "Leubuci",
      "department": "Adolfo Alsina",
      "province": "Buenos Aires",
      "station_number": 87540,
      "forecast_reference_id": 3864,
      "lon": -63.0383,
      "lat": -36.8717,
      "distance_km": 104.01,
      "station_name": "TRENQUE LAUQUEN",
      "source": "SMN georef location search"
    },
    "4062": {
      "id": 4062,
      "name": "Thames",
      "department": "Adolfo Alsina",
      "province": "Buenos Aires",
      "station_number": 87540,
      "forecast_reference_id": 3864,
      "lon": -63.2952,
      "lat": -36.9249,
      "distance_km": 117.7,
      "station_name": "TRENQUE LAUQUEN",
      "source": "SMN georef location search"
    },
    "4063": {
      "id": 4063,
      "name": "Yutuyaco",
      "department": "Adolfo Alsina",
      "province": "Buenos Aires",
      "station_number": 87540,
      "forecast_reference_id": 3864,
      "lon": -63.1301,
      "lat": -36.9849,
      "distance_km": 118.4,
      "station_name": "TRENQUE LAUQUEN",
      "source": "SMN georef location search"
    },
    "4065": {
      "id": 4065,
      "name": "La Pala",
      "department": "Adolfo Alsina",
      "province": "Buenos Aires",
      "station_number": 87540,
      "forecast_reference_id": 3864,
      "lon": -63.3616,
      "lat": -36.6639,
      "distance_km": 95.93,
      "station_name": "TRENQUE LAUQUEN",
      "source": "SMN georef location search"
    },
    "4113": {
      "id": 4113,
      "name": "Campodonico",
      "department": "Azul",
      "province": "Buenos Aires",
      "station_number": 87641,
      "forecast_reference_id": 4116,
      "lon": -59.7937,
      "lat": -36.3467,
      "distance_km": 54.49,
      "station_name": "AZUL AERO",
      "source": "SMN georef location search"
    },
    "4115": {
      "id": 4115,
      "name": "Ariel",
      "department": "Azul",
      "province": "Buenos Aires",
      "station_number": 87641,
      "forecast_reference_id": 4116,
      "lon": -59.9174,
      "lat": -36.5323,
      "distance_km": 33.38,
      "station_name": "AZUL AERO",
      "source": "SMN georef location search"
    },
    "4117": {
      "id": 4117,
      "name": "Lazzarino",
      "department": "Azul",
      "province": "Buenos Aires",
      "station_number": 87641,
      "forecast_reference_id": 4116,
      "lon": -59.7189,
      "lat": -36.9198,
      "distance_km": 17.83,
      "station_name": "AZUL AERO",
      "source": "SMN georef location search"
    },
    "4123": {
      "id": 4123,
      "name": "Miramonte",
      "department": "Azul",
      "province": "Buenos Aires",
      "station_number": 87641,
      "forecast_reference_id": 4116,
      "lon": -59.436,
      "lat": -36.308,
      "distance_km": 70.76,
      "station_name": "AZUL AERO",
      "source": "SMN georef location search"
    },
    "4124": {
      "id": 4124,
      "name": "Cacharí",
      "department": "Azul",
      "province": "Buenos Aires",
      "station_number": 87641,
      "forecast_reference_id": 4116,
      "lon": -59.505,
      "lat": -36.3833,
      "distance_km": 60.36,
      "station_name": "AZUL AERO",
      "source": "SMN georef location search"
    },
    "4132": {
      "id": 4132,
      "name": "Langueyú",
      "department": "Ayacucho",
      "province": "Buenos Aires",
      "station_number": 87563,
      "forecast_reference_id": 4144,
      "lon": -58.529,
      "lat": -36.6723,
      "distance_km": 88.76,
      "station_name": "LAS FLORES",
      "source": "SMN georef location search"
    },
    "4133": {
      "id": 4133,
      "name": "Udaquiola",
      "department": "Ayacucho",
      "province": "Buenos Aires",
      "station_number": 87563,
      "forecast_reference_id": 4144,
      "lon": -58.5359,
      "lat": -36.5618,
      "distance_km": 79.05,
      "station_name": "LAS FLORES",
      "source": "SMN georef location search"
    },
    "4135": {
      "id": 4135,
      "name": "La Reforma",
      "department": "Pila",
      "province": "Buenos Aires",
      "station_number": 87648,
      "forecast_reference_id": 4146,
      "lon": -58.6376,
      "lat": -36.209,
      "distance_km": 83.6,
      "station_name": "DOLORES AERO",
      "source": "SMN georef location search"
    },
    "4208": {
      "id": 4208,
      "name": "Arano",
      "department": "Adolfo Alsina",
      "province": "Buenos Aires",
      "station_number": 87540,
      "forecast_reference_id": 3864,
      "lon": -63.2667,
      "lat": -37.0475,
      "distance_km": 129.1,
      "station_name": "TRENQUE LAUQUEN",
      "source": "SMN georef location search"
    },
    "4209": {
      "id": 4209,
      "name": "Tres Lagunas",
      "department": "Adolfo Alsina",
      "province": "Buenos Aires",
      "station_number": 87540,
      "forecast_reference_id": 3864,
      "lon": -63.0114,
      "lat": -37.1394,
      "distance_km": 132.37,
      "station_name": "TRENQUE LAUQUEN",
      "source": "SMN georef location search"
    },
    "4210": {
      "id": 4210,
      "name": "Rivera",
      "department": "Adolfo Alsina",
      "province": "Buenos Aires",
      "station_number": 87540,
      "forecast_reference_id": 3864,
      "lon": -63.2425,
      "lat": -37.1596,
      "distance_km": 139.97,
      "station_name": "TRENQUE LAUQUEN",
      "source": "SMN georef location search"
    },
    "4211": {
      "id": 4211,
      "name": "Delfín Huergo",
      "department": "Adolfo Alsina",
      "province": "Buenos Aires",
      "station_number": 87540,
      "forecast_reference_id": 3864,
      "lon": -63.2346,
      "lat": -37.3196,
      "distance_km": 156.62,
      "station_name": "TRENQUE LAUQUEN",
      "source": "SMN georef location search"
    },
    "4212": {
      "id": 4212,
      "name": "Levy Nro. 2",
      "department": "Adolfo Alsina",
      "province": "Buenos Aires",
      "station_number": 87540,
      "forecast_reference_id": 3864,
      "lon": -63.244,
      "lat": -37.3401,
      "distance_km": 159.04,
      "station_name": "TRENQUE LAUQUEN",
      "source": "SMN georef location search"
    },
    "4213": {
      "id": 4213,
      "name": "Esteban Agustín Gazcon",
      "department": "Adolfo Alsina",
      "province": "Buenos Aires",
      "station_number": 87540,
      "forecast_reference_id": 3864,
      "lon": -63.2529,
      "lat": -37.4572,
      "distance_km": 171.72,
      "station_name": "TRENQUE LAUQUEN",
      "source": "SMN georef location search"
    },
    "4214": {
      "id": 4214,
      "name": "Villa Margarita",
      "department": "Adolfo Alsina",
      "province": "Buenos Aires",
      "station_number": 87540,
      "forecast_reference_id": 3864,
      "lon": -63.2412,
      "lat": -37.4607,
      "distance_km": 171.81,
      "station_name": "TRENQUE LAUQUEN",
      "source": "SMN georef location search"
    },
    "4215": {
      "id": 4215,
      "name": "Colonia San Miguel Arcángel",
      "department": "Adolfo Alsina",
      "province": "Buenos Aires",
      "station_number": 87540,
      "forecast_reference_id": 3864,
      "lon": -63.1195,
      "lat": -37.4492,
      "distance_km": 167.98,
      "station_name": "TRENQUE LAUQUEN",
      "source": "SMN georef location search"
    },
    "4216": {
      "id": 4216,
      "name": "Colonia Philippson",
      "department": "Adolfo Alsina",
      "province": "Buenos Aires",
      "station_number": 87540,
      "forecast_reference_id": 3864,
      "lon": -63.1103,
      "lat": -37.3361,
      "distance_km": 155.55,
      "station_name": "TRENQUE LAUQUEN",
      "source": "SMN georef location search"
    },
    "4217": {
      "id": 4217,
      "name": "Colonia Lapin",
      "department": "Adolfo Alsina",
      "province": "Buenos Aires",
      "station_number": 87540,
      "forecast_reference_id": 3864,
      "lon": -63.0633,
      "lat": -37.3697,
      "distance_km": 158.33,
      "station_name": "TRENQUE LAUQUEN",
      "source": "SMN georef location search"
    },
    "4223": {
      "id": 4223,
      "name": "San Marcos",
      "department": "Adolfo Alsina",
      "province": "Buenos Aires",
      "station_number": 87540,
      "forecast_reference_id": 3864,
      "lon": -63.3734,
      "lat": -37.5101,
      "distance_km": 180.53,
      "station_name": "TRENQUE LAUQUEN",
      "source": "SMN georef location search"
    },
    "4224": {
      "id": 4224,
      "name": "Canonigo Gorriti",
      "department": "Adolfo Alsina",
      "province": "Buenos Aires",
      "station_number": 87540,
      "forecast_reference_id": 3864,
      "lon": -63.244,
      "lat": -37.5485,
      "distance_km": 181.28,
      "station_name": "TRENQUE LAUQUEN",
      "source": "SMN georef location search"
    },
    "4226": {
      "id": 4226,
      "name": "Avestruz",
      "department": "Adolfo Alsina",
      "province": "Buenos Aires",
      "station_number": 87540,
      "forecast_reference_id": 3864,
      "lon": -63.3494,
      "lat": -37.6592,
      "distance_km": 195.64,
      "station_name": "TRENQUE LAUQUEN",
      "source": "SMN georef location search"
    },
    "4245": {
      "id": 4245,
      "name": "Juan E. Barra",
      "department": "Adolfo Gonzales Chaves",
      "province": "Buenos Aires",
      "station_number": 87688,
      "forecast_reference_id": 4462,
      "lon": -60.4799,
      "lat": -37.8212,
      "distance_km": 62.16,
      "station_name": "TRES ARROYOS",
      "source": "SMN georef location search"
    },
    "4247": {
      "id": 4247,
      "name": "De La Garma",
      "department": "Adolfo Gonzales Chaves",
      "province": "Buenos Aires",
      "station_number": 87688,
      "forecast_reference_id": 4462,
      "lon": -60.4154,
      "lat": -37.9646,
      "distance_km": 45.31,
      "station_name": "TRES ARROYOS",
      "source": "SMN georef location search"
    },
    "4249": {
      "id": 4249,
      "name": "16 de Julio",
      "department": "Azul",
      "province": "Buenos Aires",
      "station_number": 87641,
      "forecast_reference_id": 4116,
      "lon": -60.1655,
      "lat": -37.1985,
      "distance_km": 47.66,
      "station_name": "AZUL AERO",
      "source": "SMN georef location search"
    },
    "4250": {
      "id": 4250,
      "name": "Alzaga",
      "department": "Adolfo Gonzales Chaves",
      "province": "Buenos Aires",
      "station_number": 87688,
      "forecast_reference_id": 4462,
      "lon": -59.9588,
      "lat": -37.8545,
      "distance_km": 62.91,
      "station_name": "TRES ARROYOS",
      "source": "SMN georef location search"
    },
    "4252": {
      "id": 4252,
      "name": "Azopardo",
      "department": "Azul",
      "province": "Buenos Aires",
      "station_number": 87641,
      "forecast_reference_id": 4116,
      "lon": -59.7475,
      "lat": -37.0567,
      "distance_km": 27.83,
      "station_name": "AZUL AERO",
      "source": "SMN georef location search"
    },
    "4253": {
      "id": 4253,
      "name": "Cuarteles",
      "department": "Azul",
      "province": "Buenos Aires",
      "station_number": 87641,
      "forecast_reference_id": 4116,
      "lon": -59.6792,
      "lat": -37.0495,
      "distance_km": 30.38,
      "station_name": "AZUL AERO",
      "source": "SMN georef location search"
    },
    "4268": {
      "id": 4268,
      "name": "Cangallo",
      "department": "Ayacucho",
      "province": "Buenos Aires",
      "station_number": 87645,
      "forecast_reference_id": 4144,
      "lon": -58.6819,
      "lat": -37.2151,
      "distance_km": 49.01,
      "station_name": "TANDIL AERO",
      "source": "SMN georef location search"
    },
    "4269": {
      "id": 4269,
      "name": "La Constancia",
      "department": "Ayacucho",
      "province": "Buenos Aires",
      "station_number": 87645,
      "forecast_reference_id": 4144,
      "lon": -58.7584,
      "lat": -37.2271,
      "distance_km": 42.16,
      "station_name": "TANDIL AERO",
      "source": "SMN georef location search"
    },
    "4289": {
      "id": 4289,
      "name": "Ayacucho",
      "department": "Ayacucho",
      "province": "Buenos Aires",
      "station_number": 87645,
      "forecast_reference_id": 4144,
      "lon": -58.4753,
      "lat": -37.1496,
      "distance_km": 68.05,
      "station_name": "TANDIL AERO",
      "source": "SMN georef location search"
    },
    "4290": {
      "id": 4290,
      "name": "San Ignacio",
      "department": "Ayacucho",
      "province": "Buenos Aires",
      "station_number": 87645,
      "forecast_reference_id": 4144,
      "lon": -58.4206,
      "lat": -37.3491,
      "distance_km": 73.04,
      "station_name": "TANDIL AERO",
      "source": "SMN georef location search"
    },
    "4293": {
      "id": 4293,
      "name": "Fair",
      "department": "Ayacucho",
      "province": "Buenos Aires",
      "station_number": 87645,
      "forecast_reference_id": 4144,
      "lon": -58.3055,
      "lat": -37.0672,
      "distance_km": 84.64,
      "station_name": "TANDIL AERO",
      "source": "SMN georef location search"
    },
    "4304": {
      "id": 4304,
      "name": "Playa Dorada",
      "department": "Mar Chiquita",
      "province": "Buenos Aires",
      "station_number": 87692,
      "forecast_reference_id": 4317,
      "lon": -57.5205,
      "lat": -37.8657,
      "distance_km": 9.11,
      "station_name": "MAR DEL PLATA AERO",
      "source": "SMN georef location search"
    },
    "4320": {
      "id": 4320,
      "name": "Villa Suari",
      "department": "Adolfo Alsina",
      "province": "Buenos Aires",
      "station_number": 87540,
      "forecast_reference_id": 3864,
      "lon": -62.9719,
      "lat": -37.1146,
      "distance_km": 129.02,
      "station_name": "TRENQUE LAUQUEN",
      "source": "SMN georef location search"
    },
    "4321": {
      "id": 4321,
      "name": "Lago Epecuén",
      "department": "Adolfo Alsina",
      "province": "Buenos Aires",
      "station_number": 87540,
      "forecast_reference_id": 3864,
      "lon": -62.7995,
      "lat": -37.1268,
      "distance_km": 128.65,
      "station_name": "TRENQUE LAUQUEN",
      "source": "SMN georef location search"
    },
    "4324": {
      "id": 4324,
      "name": "Azopardo",
      "department": "Puan",
      "province": "Buenos Aires",
      "station_number": 87679,
      "forecast_reference_id": 4338,
      "lon": -62.8959,
      "lat": -37.6997,
      "distance_km": 46.09,
      "station_name": "PIGUE AERO",
      "source": "SMN georef location search"
    },
    "4333": {
      "id": 4333,
      "name": "Carhue",
      "department": "Adolfo Alsina",
      "province": "Buenos Aires",
      "station_number": 87540,
      "forecast_reference_id": 3864,
      "lon": -62.7599,
      "lat": -37.1789,
      "distance_km": 134.3,
      "station_name": "TRENQUE LAUQUEN",
      "source": "SMN georef location search"
    },
    "4346": {
      "id": 4346,
      "name": "Cabaña El Destino",
      "department": "Coronel Suarez",
      "province": "Buenos Aires",
      "station_number": 87637,
      "forecast_reference_id": 4338,
      "lon": -61.9957,
      "lat": -37.4081,
      "distance_km": 10.56,
      "station_name": "CORONEL SUAREZ AERO",
      "source": "SMN georef location search"
    },
    "4459": {
      "id": 4459,
      "name": "Adolfo Gonzales Chaves",
      "department": "Adolfo Gonzales Chaves",
      "province": "Buenos Aires",
      "station_number": 87688,
      "forecast_reference_id": 4462,
      "lon": -60.1007,
      "lat": -38.028,
      "distance_km": 40.16,
      "station_name": "TRES ARROYOS",
      "source": "SMN georef location search"
    },
    "4460": {
      "id": 4460,
      "name": "Vasquez",
      "department": "Adolfo Gonzales Chaves",
      "province": "Buenos Aires",
      "station_number": 87688,
      "forecast_reference_id": 4462,
      "lon": -60.1704,
      "lat": -38.1776,
      "distance_km": 22.52,
      "station_name": "TRES ARROYOS",
      "source": "SMN georef location search"
    },
    "4550": {
      "id": 4550,
      "name": "La Querencia",
      "department": "Patagones",
      "province": "Buenos Aires",
      "station_number": 87679,
      "forecast_reference_id": 4338,
      "lon": -62.7923,
      "lat": -40.4764,
      "distance_km": 320.35,
      "station_name": "PIGUE AERO",
      "source": "SMN georef location search"
    },
    "4560": {
      "id": 4560,
      "name": "Chillar",
      "department": "Azul",
      "province": "Buenos Aires",
      "station_number": 87649,
      "forecast_reference_id": 4116,
      "lon": -59.9851,
      "lat": -37.3114,
      "distance_km": 46.55,
      "station_name": "BENITO JUAREZ AERO",
      "source": "SMN georef location search"
    },
    "4574": {
      "id": 4574,
      "name": "La Colorada",
      "department": "San Pedro",
      "province": "Buenos Aires",
      "station_number": 87572,
      "forecast_reference_id": 4590,
      "lon": -59.7227,
      "lat": -33.8633,
      "distance_km": 115.67,
      "station_name": "MARIANO MORENO AERO",
      "source": "SMN georef location search"
    },
    "4632": {
      "id": 4632,
      "name": "Blaquier",
      "department": "Ameghino",
      "province": "Buenos Aires",
      "station_number": 87534,
      "forecast_reference_id": 3834,
      "lon": -62.4786,
      "lat": -34.6389,
      "distance_km": 99.49,
      "station_name": "LABOULAYE AERO",
      "source": "SMN georef location search"
    },
    "4637": {
      "id": 4637,
      "name": "Florentino Ameghino",
      "department": "Ameghino",
      "province": "Buenos Aires",
      "station_number": 87534,
      "forecast_reference_id": 3834,
      "lon": -62.4674,
      "lat": -34.8461,
      "distance_km": 114.83,
      "station_name": "LABOULAYE AERO",
      "source": "SMN georef location search"
    },
    "4638": {
      "id": 4638,
      "name": "Eduardo Costa",
      "department": "Ameghino",
      "province": "Buenos Aires",
      "station_number": 87544,
      "forecast_reference_id": 3834,
      "lon": -62.3355,
      "lat": -34.8187,
      "distance_km": 121.36,
      "station_name": "PEHUAJO AERO",
      "source": "SMN georef location search"
    },
    "4641": {
      "id": 4641,
      "name": "Porvenir",
      "department": "Ameghino",
      "province": "Buenos Aires",
      "station_number": 87544,
      "forecast_reference_id": 3834,
      "lon": -62.2228,
      "lat": -34.9501,
      "distance_km": 104.17,
      "station_name": "PEHUAJO AERO",
      "source": "SMN georef location search"
    },
    "4723": {
      "id": 4723,
      "name": "Coronel Seguí",
      "department": "Alberti",
      "province": "Buenos Aires",
      "station_number": 87550,
      "forecast_reference_id": 3989,
      "lon": -60.3913,
      "lat": -34.867,
      "distance_km": 77.62,
      "station_name": "NUEVE DE JULIO",
      "source": "SMN georef location search"
    },
    "4724": {
      "id": 4724,
      "name": "Villa Ortiz",
      "department": "Alberti",
      "province": "Buenos Aires",
      "station_number": 87550,
      "forecast_reference_id": 3989,
      "lon": -60.3055,
      "lat": -34.8436,
      "distance_km": 84.39,
      "station_name": "NUEVE DE JULIO",
      "source": "SMN georef location search"
    },
    "4725": {
      "id": 4725,
      "name": "Villa María",
      "department": "Alberti",
      "province": "Buenos Aires",
      "station_number": 87550,
      "forecast_reference_id": 3989,
      "lon": -60.3403,
      "lat": -34.8872,
      "distance_km": 78.63,
      "station_name": "NUEVE DE JULIO",
      "source": "SMN georef location search"
    },
    "4801": {
      "id": 4801,
      "name": "El Rincón",
      "department": "General Rodriguez",
      "province": "Buenos Aires",
      "station_number": 87572,
      "forecast_reference_id": 4736,
      "lon": -58.976,
      "lat": -34.6574,
      "distance_km": 20.59,
      "station_name": "MARIANO MORENO AERO",
      "source": "SMN georef location search"
    },
    "4876": {
      "id": 4876,
      "name": "Ministro Rivadavia",
      "department": "Almirante Brown",
      "province": "Buenos Aires",
      "station_number": 87576,
      "forecast_reference_id": 4875,
      "lon": -58.3715,
      "lat": -34.8384,
      "distance_km": 15.78,
      "station_name": "EZEIZA AERO",
      "source": "SMN georef location search"
    },
    "4938": {
      "id": 4938,
      "name": "El Recreo",
      "department": "Santa María",
      "province": "Catamarca",
      "station_number": 87121,
      "forecast_reference_id": 4941,
      "lon": -66.0531,
      "lat": -26.7201,
      "distance_km": 94.84,
      "station_name": "TUCUMAN AERO",
      "source": "SMN georef location search"
    },
    "4965": {
      "id": 4965,
      "name": "El Retiro",
      "department": "Tinogasta",
      "province": "Catamarca",
      "station_number": 87211,
      "forecast_reference_id": 5257,
      "lon": -67.6432,
      "lat": -27.7288,
      "distance_km": 38.28,
      "station_name": "TINOGASTA",
      "source": "SMN georef location search"
    },
    "5110": {
      "id": 5110,
      "name": "San Miguel",
      "department": "Pomán",
      "province": "Catamarca",
      "station_number": 87211,
      "forecast_reference_id": 5257,
      "lon": -66.193,
      "lat": -28.1399,
      "distance_km": 135.09,
      "station_name": "TINOGASTA",
      "source": "SMN georef location search"
    },
    "5299": {
      "id": 5299,
      "name": "San Miguel",
      "department": "La Paz",
      "province": "Catamarca",
      "station_number": 87222,
      "forecast_reference_id": 5149,
      "lon": -65.2882,
      "lat": -29.4541,
      "distance_km": 105.68,
      "station_name": "CATAMARCA AERO",
      "source": "SMN georef location search"
    },
    "5351": {
      "id": 5351,
      "name": "El Recreo",
      "department": "General Güemes",
      "province": "Chaco",
      "station_number": 87065,
      "forecast_reference_id": 5385,
      "lon": -62.0729,
      "lat": -24.6175,
      "distance_km": 95.42,
      "station_name": "RIVADAVIA",
      "source": "SMN georef location search"
    },
    "5404": {
      "id": 5404,
      "name": "San Antonio",
      "department": "Almirante Brown",
      "province": "Chaco",
      "station_number": 87065,
      "forecast_reference_id": 5385,
      "lon": -62.7056,
      "lat": -25.2671,
      "distance_km": 121.22,
      "station_name": "RIVADAVIA",
      "source": "SMN georef location search"
    },
    "5576": {
      "id": 5576,
      "name": "El Retiro",
      "department": "Bermejo",
      "province": "Chaco",
      "station_number": 87155,
      "forecast_reference_id": 5648,
      "lon": -58.8465,
      "lat": -26.84,
      "distance_km": 69.24,
      "station_name": "RESISTENCIA AERO",
      "source": "SMN georef location search"
    },
    "5614": {
      "id": 5614,
      "name": "José Marmol",
      "department": "Independencia",
      "province": "Chaco",
      "station_number": 87148,
      "forecast_reference_id": 5717,
      "lon": -60.6823,
      "lat": -27.0211,
      "distance_km": 36.11,
      "station_name": "PRESIDENCIA ROQUE SAENZ PEÑA AERO",
      "source": "SMN georef location search"
    },
    "5650": {
      "id": 5650,
      "name": "Playa Ford",
      "department": "San Fernando",
      "province": "Chaco",
      "station_number": 87155,
      "forecast_reference_id": 5648,
      "lon": -59.2728,
      "lat": -27.9551,
      "distance_km": 61.42,
      "station_name": "RESISTENCIA AERO",
      "source": "SMN georef location search"
    },
    "5778": {
      "id": 5778,
      "name": "Carhue Niyeo",
      "department": "Gastre",
      "province": "Chubut",
      "station_number": 87814,
      "forecast_reference_id": 5810,
      "lon": -68.4566,
      "lat": -42.8411,
      "distance_km": 123.1,
      "station_name": "PASO DE INDIOS",
      "source": "SMN georef location search"
    },
    "5893": {
      "id": 5893,
      "name": "Florentino Ameghino",
      "department": "Florentino Ameghino",
      "province": "Chubut",
      "station_number": 87828,
      "forecast_reference_id": 5886,
      "lon": -65.8019,
      "lat": -43.8355,
      "distance_km": 81.31,
      "station_name": "TRELEW AERO",
      "source": "SMN georef location search"
    },
    "6000": {
      "id": 6000,
      "name": "San Miguel",
      "department": "Río Seco",
      "province": "Córdoba",
      "station_number": 87244,
      "forecast_reference_id": 10955,
      "lon": -63.7315,
      "lat": -29.7872,
      "distance_km": 13.15,
      "station_name": "VILLA DE MARIA DEL RIO SECO",
      "source": "SMN georef location search"
    },
    "6015": {
      "id": 6015,
      "name": "La Luciana",
      "department": "Río Seco",
      "province": "Córdoba",
      "station_number": 87244,
      "forecast_reference_id": 10955,
      "lon": -63.3987,
      "lat": -29.9501,
      "distance_km": 32.13,
      "station_name": "VILLA DE MARIA DEL RIO SECO",
      "source": "SMN georef location search"
    },
    "6086": {
      "id": 6086,
      "name": "San Antonio",
      "department": "Cruz del Eje",
      "province": "Córdoba",
      "station_number": 87320,
      "forecast_reference_id": 6110,
      "lon": -65.0813,
      "lat": -30.3923,
      "distance_km": 116.94,
      "station_name": "CHAMICAL AERO",
      "source": "SMN georef location search"
    },
    "6124": {
      "id": 6124,
      "name": "San Marcos Sierra",
      "department": "Punilla",
      "province": "Córdoba",
      "station_number": 87344,
      "forecast_reference_id": 6110,
      "lon": -64.6388,
      "lat": -30.7831,
      "distance_km": 70.02,
      "station_name": "CORDOBA AERO",
      "source": "SMN georef location search"
    },
    "6125": {
      "id": 6125,
      "name": "El Rincón",
      "department": "Cruz del Eje",
      "province": "Córdoba",
      "station_number": 87344,
      "forecast_reference_id": 6110,
      "lon": -64.6445,
      "lat": -30.7492,
      "distance_km": 73.42,
      "station_name": "CORDOBA AERO",
      "source": "SMN georef location search"
    },
    "6143": {
      "id": 6143,
      "name": "Isla de San Antonio",
      "department": "Tulumba",
      "province": "Córdoba",
      "station_number": 87244,
      "forecast_reference_id": 10955,
      "lon": -64.4139,
      "lat": -30.029,
      "distance_km": 67.63,
      "station_name": "VILLA DE MARIA DEL RIO SECO",
      "source": "SMN georef location search"
    },
    "6255": {
      "id": 6255,
      "name": "El Retiro",
      "department": "Sobremonte",
      "province": "Córdoba",
      "station_number": 87244,
      "forecast_reference_id": 10955,
      "lon": -63.9226,
      "lat": -30.0117,
      "distance_km": 22.18,
      "station_name": "VILLA DE MARIA DEL RIO SECO",
      "source": "SMN georef location search"
    },
    "6319": {
      "id": 6319,
      "name": "Isla de los Chorros",
      "department": "Río Seco",
      "province": "Córdoba",
      "station_number": 87244,
      "forecast_reference_id": 10955,
      "lon": -63.2668,
      "lat": -30.2106,
      "distance_km": 55.82,
      "station_name": "VILLA DE MARIA DEL RIO SECO",
      "source": "SMN georef location search"
    },
    "6331": {
      "id": 6331,
      "name": "Plaza de Mercedes",
      "department": "Río Primero",
      "province": "Córdoba",
      "station_number": 87349,
      "forecast_reference_id": 6500,
      "lon": -63.254,
      "lat": -30.9852,
      "distance_km": 96.46,
      "station_name": "PILAR OBSERVATORIO",
      "source": "SMN georef location search"
    },
    "6349": {
      "id": 6349,
      "name": "Playa Orlin",
      "department": "San Justo",
      "province": "Córdoba",
      "station_number": 87356,
      "forecast_reference_id": 6565,
      "lon": -62.1839,
      "lat": -30.602,
      "distance_km": 73.74,
      "station_name": "SUNCHALES AERO",
      "source": "SMN georef location search"
    },
    "6404": {
      "id": 6404,
      "name": "Rivera Indarte",
      "department": "Capital",
      "province": "Córdoba",
      "station_number": 87345,
      "forecast_reference_id": 6425,
      "lon": -64.265,
      "lat": -31.3279,
      "distance_km": 12.1,
      "station_name": "CORDOBA OBSERVATORIO",
      "source": "SMN georef location search"
    },
    "6557": {
      "id": 6557,
      "name": "Plaza Luxardo",
      "department": "San Justo",
      "province": "Córdoba",
      "station_number": 87360,
      "forecast_reference_id": 6565,
      "lon": -62.2295,
      "lat": -31.3016,
      "distance_km": 68.6,
      "station_name": "RAFAELA AERO",
      "source": "SMN georef location search"
    },
    "6803": {
      "id": 6803,
      "name": "San Marcos",
      "department": "Unión",
      "province": "Córdoba",
      "station_number": 87467,
      "forecast_reference_id": 6826,
      "lon": -62.4833,
      "lat": -32.6298,
      "distance_km": 31.71,
      "station_name": "MARCOS JUAREZ AERO",
      "source": "SMN georef location search"
    },
    "6901": {
      "id": 6901,
      "name": "Villa María",
      "department": "General San Martín",
      "province": "Córdoba",
      "station_number": 87467,
      "forecast_reference_id": 6826,
      "lon": -63.2398,
      "lat": -32.412,
      "distance_km": 106.53,
      "station_name": "MARCOS JUAREZ AERO",
      "source": "SMN georef location search"
    },
    "6930": {
      "id": 6930,
      "name": "La Constancia",
      "department": "San Javier",
      "province": "Córdoba",
      "station_number": 87328,
      "forecast_reference_id": 6698,
      "lon": -64.987,
      "lat": -32.0111,
      "distance_km": 16.69,
      "station_name": "VILLA DOLORES AERO",
      "source": "SMN georef location search"
    },
    "6956": {
      "id": 6956,
      "name": "San Ignacio",
      "department": "Calamuchita",
      "province": "Córdoba",
      "station_number": 87328,
      "forecast_reference_id": 6387,
      "lon": -64.5188,
      "lat": -32.159,
      "distance_km": 63.82,
      "station_name": "VILLA DOLORES AERO",
      "source": "SMN georef location search"
    },
    "7130": {
      "id": 7130,
      "name": "El Rinconcito",
      "department": "Río Cuarto",
      "province": "Córdoba",
      "station_number": 87453,
      "forecast_reference_id": 7007,
      "lon": -64.5695,
      "lat": -34.0912,
      "distance_km": 113.73,
      "station_name": "RIO CUARTO AERO",
      "source": "SMN georef location search"
    },
    "7157": {
      "id": 7157,
      "name": "Playadito",
      "department": "Ituzaingo",
      "province": "Corrientes",
      "station_number": 87173,
      "forecast_reference_id": 7151,
      "lon": -55.9191,
      "lat": -27.884,
      "distance_km": 81.74,
      "station_name": "ITUZAINGO",
      "source": "SMN georef location search"
    },
    "7221": {
      "id": 7221,
      "name": "San Juan Loma",
      "department": "San Miguel",
      "province": "Corrientes",
      "station_number": 87173,
      "forecast_reference_id": 7151,
      "lon": -57.209,
      "lat": -27.6579,
      "distance_km": 53.09,
      "station_name": "ITUZAINGO",
      "source": "SMN georef location search"
    },
    "7378": {
      "id": 7378,
      "name": "San Juan",
      "department": "Goya",
      "province": "Corrientes",
      "station_number": 87270,
      "forecast_reference_id": 7363,
      "lon": -59.3397,
      "lat": -29.6401,
      "distance_km": 59.19,
      "station_name": "RECONQUISTA AERO",
      "source": "SMN georef location search"
    },
    "7630": {
      "id": 7630,
      "name": "La Constancia",
      "department": "Paraná",
      "province": "Entre Ríos",
      "station_number": 87374,
      "forecast_reference_id": 7641,
      "lon": -60.2791,
      "lat": -31.8228,
      "distance_km": 19.75,
      "station_name": "PARANA AERO",
      "source": "SMN georef location search"
    },
    "7702": {
      "id": 7702,
      "name": "La Querencia",
      "department": "Concordia",
      "province": "Entre Ríos",
      "station_number": 87395,
      "forecast_reference_id": 7706,
      "lon": -58.4384,
      "lat": -31.0727,
      "distance_km": 48.81,
      "station_name": "CONCORDIA AERO",
      "source": "SMN georef location search"
    },
    "7755": {
      "id": 7755,
      "name": "San Antonio",
      "department": "Colón",
      "province": "Entre Ríos",
      "station_number": 87497,
      "forecast_reference_id": 7851,
      "lon": -58.5163,
      "lat": -32.0248,
      "distance_km": 109.89,
      "station_name": "GUALEGUAYCHU AERO",
      "source": "SMN georef location search"
    },
    "7756": {
      "id": 7756,
      "name": "San Miguel",
      "department": "Colón",
      "province": "Entre Ríos",
      "station_number": 87497,
      "forecast_reference_id": 7851,
      "lon": -58.5772,
      "lat": -32.0466,
      "distance_km": 107.16,
      "station_name": "GUALEGUAYCHU AERO",
      "source": "SMN georef location search"
    },
    "7853": {
      "id": 7853,
      "name": "Mazaruca",
      "department": "Islas del Ibicuy",
      "province": "Entre Ríos",
      "station_number": 87497,
      "forecast_reference_id": 7851,
      "lon": -59.2771,
      "lat": -33.6076,
      "distance_km": 90.59,
      "station_name": "GUALEGUAYCHU AERO",
      "source": "SMN georef location search"
    },
    "7962": {
      "id": 7962,
      "name": "Isla de Torre",
      "department": "Matacos",
      "province": "Formosa",
      "station_number": 87065,
      "forecast_reference_id": 7925,
      "lon": -62.0508,
      "lat": -24.2133,
      "distance_km": 84.97,
      "station_name": "RIVADAVIA",
      "source": "SMN georef location search"
    },
    "7963": {
      "id": 7963,
      "name": "Isla de Ponce",
      "department": "Matacos",
      "province": "Formosa",
      "station_number": 87065,
      "forecast_reference_id": 7925,
      "lon": -62.0228,
      "lat": -24.205,
      "distance_km": 87.79,
      "station_name": "RIVADAVIA",
      "source": "SMN georef location search"
    },
    "7976": {
      "id": 7976,
      "name": "Isla de Cuba",
      "department": "Matacos",
      "province": "Formosa",
      "station_number": 87065,
      "forecast_reference_id": 7925,
      "lon": -61.8539,
      "lat": -24.2926,
      "distance_km": 105.56,
      "station_name": "RIVADAVIA",
      "source": "SMN georef location search"
    },
    "7983": {
      "id": 7983,
      "name": "Isla Chica",
      "department": "Bermejo",
      "province": "Formosa",
      "station_number": 87065,
      "forecast_reference_id": 7925,
      "lon": -61.7336,
      "lat": -24.3157,
      "distance_km": 117.98,
      "station_name": "RIVADAVIA",
      "source": "SMN georef location search"
    },
    "8002": {
      "id": 8002,
      "name": "El Retiro",
      "department": "Bermejo",
      "province": "Formosa",
      "station_number": 87078,
      "forecast_reference_id": 7925,
      "lon": -60.3945,
      "lat": -23.9949,
      "distance_km": 80.95,
      "station_name": "LAS LOMITAS",
      "source": "SMN georef location search"
    },
    "8199": {
      "id": 8199,
      "name": "El Recreo",
      "department": "Patiño",
      "province": "Formosa",
      "station_number": 87078,
      "forecast_reference_id": 8088,
      "lon": -59.2773,
      "lat": -25.0317,
      "distance_km": 137.98,
      "station_name": "LAS LOMITAS",
      "source": "SMN georef location search"
    },
    "8231": {
      "id": 8231,
      "name": "Tres Lagunas",
      "department": "Pilagas",
      "province": "Formosa",
      "station_number": 87162,
      "forecast_reference_id": 8296,
      "lon": -58.4309,
      "lat": -25.2593,
      "distance_km": 107.51,
      "station_name": "FORMOSA AERO",
      "source": "SMN georef location search"
    },
    "8240": {
      "id": 8240,
      "name": "San Juan",
      "department": "Pilcomayo",
      "province": "Formosa",
      "station_number": 87162,
      "forecast_reference_id": 8296,
      "lon": -57.9533,
      "lat": -25.1746,
      "distance_km": 118.26,
      "station_name": "FORMOSA AERO",
      "source": "SMN georef location search"
    },
    "8646": {
      "id": 8646,
      "name": "Isla Chica",
      "department": "Santa Bárbara",
      "province": "Jujuy",
      "station_number": 87046,
      "forecast_reference_id": 8618,
      "lon": -64.325,
      "lat": -24.0211,
      "distance_km": 87.99,
      "station_name": "JUJUY AERO",
      "source": "SMN georef location search"
    },
    "8656": {
      "id": 8656,
      "name": "Villa María",
      "department": "Santa Catalina",
      "province": "Jujuy",
      "station_number": 87007,
      "forecast_reference_id": 8368,
      "lon": -66.275,
      "lat": -21.9955,
      "distance_km": 70.62,
      "station_name": "LA QUIACA OBSERVATORIO",
      "source": "SMN georef location search"
    },
    "8672": {
      "id": 8672,
      "name": "San Juan de Oro",
      "department": "Santa Catalina",
      "province": "Jujuy",
      "station_number": 87007,
      "forecast_reference_id": 8368,
      "lon": -66.3819,
      "lat": -22.2109,
      "distance_km": 81.45,
      "station_name": "LA QUIACA OBSERVATORIO",
      "source": "SMN georef location search"
    },
    "8744": {
      "id": 8744,
      "name": "San Juan de Quillaques",
      "department": "Susques",
      "province": "Jujuy",
      "station_number": 87007,
      "forecast_reference_id": 8745,
      "lon": -66.3227,
      "lat": -23.2979,
      "distance_km": 151.66,
      "station_name": "LA QUIACA OBSERVATORIO",
      "source": "SMN georef location search"
    },
    "8881": {
      "id": 8881,
      "name": "La Reforma",
      "department": "Limay Mahuida",
      "province": "La Pampa",
      "station_number": 87616,
      "forecast_reference_id": 8817,
      "lon": -66.2268,
      "lat": -37.5501,
      "distance_km": 164.48,
      "station_name": "VICTORICA",
      "source": "SMN georef location search"
    },
    "8947": {
      "id": 8947,
      "name": "El Retiro",
      "department": "San Blas de Los Sauces",
      "province": "La Rioja",
      "station_number": 87213,
      "forecast_reference_id": 8969,
      "lon": -67.0231,
      "lat": -28.2688,
      "distance_km": 112.93,
      "station_name": "CHILECITO AERO",
      "source": "SMN georef location search"
    },
    "8978": {
      "id": 8978,
      "name": "San Antonio",
      "department": "Capital",
      "province": "La Rioja",
      "station_number": 87217,
      "forecast_reference_id": 8994,
      "lon": -66.1444,
      "lat": -29.2379,
      "distance_km": 65.04,
      "station_name": "LA RIOJA AERO",
      "source": "SMN georef location search"
    },
    "9000": {
      "id": 9000,
      "name": "San Miguel",
      "department": "Capital",
      "province": "La Rioja",
      "station_number": 87217,
      "forecast_reference_id": 8994,
      "lon": -66.0929,
      "lat": -29.623,
      "distance_km": 72.96,
      "station_name": "LA RIOJA AERO",
      "source": "SMN georef location search"
    },
    "9203": {
      "id": 9203,
      "name": "El Rincón",
      "department": "General Ocampo",
      "province": "La Rioja",
      "station_number": 87320,
      "forecast_reference_id": 9117,
      "lon": -66.4139,
      "lat": -30.9512,
      "distance_km": 67.84,
      "station_name": "CHAMICAL AERO",
      "source": "SMN georef location search"
    },
    "9419": {
      "id": 9419,
      "name": "San Miguel",
      "department": "Lavalle",
      "province": "Mendoza",
      "station_number": 87416,
      "forecast_reference_id": 9450,
      "lon": -67.5244,
      "lat": -32.2955,
      "distance_km": 123.36,
      "station_name": "SAN MARTIN (MZA)",
      "source": "SMN georef location search"
    },
    "9505": {
      "id": 9505,
      "name": "La Chacra",
      "department": "La Paz",
      "province": "Mendoza",
      "station_number": 87416,
      "forecast_reference_id": 9450,
      "lon": -67.6052,
      "lat": -33.5074,
      "distance_km": 93.44,
      "station_name": "SAN MARTIN (MZA)",
      "source": "SMN georef location search"
    },
    "9607": {
      "id": 9607,
      "name": "San Ignacio",
      "department": "San Ignacio",
      "province": "Misiones",
      "station_number": 87178,
      "forecast_reference_id": 9598,
      "lon": -55.5335,
      "lat": -27.2558,
      "distance_km": 45.45,
      "station_name": "POSADAS AERO",
      "source": "SMN georef location search"
    },
    "9640": {
      "id": 9640,
      "name": "San Miguel",
      "department": "Libertador General San Martín",
      "province": "Misiones",
      "station_number": 87178,
      "forecast_reference_id": 9598,
      "lon": -54.8878,
      "lat": -26.8551,
      "distance_km": 122.38,
      "station_name": "POSADAS AERO",
      "source": "SMN georef location search"
    },
    "9899": {
      "id": 9899,
      "name": "Planicie Banderita",
      "department": "Añelo",
      "province": "Neuquén",
      "station_number": 87715,
      "forecast_reference_id": 9903,
      "lon": -68.4711,
      "lat": -38.5319,
      "distance_km": 54.96,
      "station_name": "NEUQUEN AERO",
      "source": "SMN georef location search"
    },
    "9950": {
      "id": 9950,
      "name": "Plaza Huincul",
      "department": "Confluencia",
      "province": "Neuquén",
      "station_number": 87715,
      "forecast_reference_id": 9903,
      "lon": -69.1843,
      "lat": -38.9308,
      "distance_km": 90.86,
      "station_name": "NEUQUEN AERO",
      "source": "SMN georef location search"
    },
    "10001": {
      "id": 10001,
      "name": "La Chacra",
      "department": "Catan Lil",
      "province": "Neuquén",
      "station_number": 87761,
      "forecast_reference_id": 9933,
      "lon": -70.5859,
      "lat": -39.5642,
      "distance_km": 74.64,
      "station_name": "CHAPELCO AERO",
      "source": "SMN georef location search"
    },
    "10063": {
      "id": 10063,
      "name": "El Rincón",
      "department": "Tafí del Valle",
      "province": "Tucumán",
      "station_number": 87121,
      "forecast_reference_id": 10835,
      "lon": -65.7746,
      "lat": -26.9647,
      "distance_km": 67.67,
      "station_name": "TUCUMAN AERO",
      "source": "SMN georef location search"
    },
    "10121": {
      "id": 10121,
      "name": "Villa Mariano Moreno",
      "department": "Tafí Viejo",
      "province": "Tucumán",
      "station_number": 87121,
      "forecast_reference_id": 10118,
      "lon": -65.2173,
      "lat": -26.7236,
      "distance_km": 16.61,
      "station_name": "TUCUMAN AERO",
      "source": "SMN georef location search"
    },
    "10134": {
      "id": 10134,
      "name": "San Miguel",
      "department": "Cruz Alta",
      "province": "Tucumán",
      "station_number": 87121,
      "forecast_reference_id": 10118,
      "lon": -65.1111,
      "lat": -26.9353,
      "distance_km": 10.86,
      "station_name": "TUCUMAN AERO",
      "source": "SMN georef location search"
    },
    "10203": {
      "id": 10203,
      "name": "San Miguel",
      "department": "Burruyacú",
      "province": "Tucumán",
      "station_number": 87121,
      "forecast_reference_id": 10118,
      "lon": -64.7017,
      "lat": -26.72,
      "distance_km": 42.49,
      "station_name": "TUCUMAN AERO",
      "source": "SMN georef location search"
    },
    "10275": {
      "id": 10275,
      "name": "Playa  Barga",
      "department": "Monteros",
      "province": "Tucumán",
      "station_number": 87121,
      "forecast_reference_id": 10118,
      "lon": -65.6635,
      "lat": -27.0716,
      "distance_km": 60.92,
      "station_name": "TUCUMAN AERO",
      "source": "SMN georef location search"
    },
    "10314": {
      "id": 10314,
      "name": "San Ignacio",
      "department": "La Cocha",
      "province": "Tucumán",
      "station_number": 87121,
      "forecast_reference_id": 10118,
      "lon": -65.624,
      "lat": -27.7532,
      "distance_km": 113.6,
      "station_name": "TUCUMAN AERO",
      "source": "SMN georef location search"
    },
    "10339": {
      "id": 10339,
      "name": "San Miguel",
      "department": "Río Chico",
      "province": "Tucumán",
      "station_number": 87121,
      "forecast_reference_id": 10118,
      "lon": -65.5588,
      "lat": -27.433,
      "distance_km": 79.69,
      "station_name": "TUCUMAN AERO",
      "source": "SMN georef location search"
    },
    "10553": {
      "id": 10553,
      "name": "Alberti",
      "department": "Alberti",
      "province": "Buenos Aires",
      "station_number": 87550,
      "forecast_reference_id": 3989,
      "lon": -60.2793,
      "lat": -35.0334,
      "distance_km": 70.95,
      "station_name": "NUEVE DE JULIO",
      "source": "SMN georef location search"
    },
    "10561": {
      "id": 10561,
      "name": "Playa Magagna",
      "department": "Rawson",
      "province": "Chubut",
      "station_number": 87828,
      "forecast_reference_id": 5888,
      "lon": -65.0479,
      "lat": -43.3764,
      "distance_km": 26.6,
      "station_name": "TRELEW AERO",
      "source": "SMN georef location search"
    },
    "10582": {
      "id": 10582,
      "name": "José Marmol",
      "department": "Almirante Brown",
      "province": "Buenos Aires",
      "station_number": 87576,
      "forecast_reference_id": 4875,
      "lon": -58.3813,
      "lat": -34.7917,
      "distance_km": 15.03,
      "station_name": "EZEIZA AERO",
      "source": "SMN georef location search"
    },
    "10583": {
      "id": 10583,
      "name": "Villa Domínico",
      "department": "Avellaneda",
      "province": "Buenos Aires",
      "station_number": 87582,
      "forecast_reference_id": 4875,
      "lon": -58.3263,
      "lat": -34.6902,
      "distance_km": 16.9,
      "station_name": "AEROPARQUE AERO",
      "source": "SMN georef location search"
    },
    "10592": {
      "id": 10592,
      "name": "Plátanos",
      "department": "Berazategui",
      "province": "Buenos Aires",
      "station_number": 87582,
      "forecast_reference_id": 4875,
      "lon": -58.1735,
      "lat": -34.7803,
      "distance_km": 33.36,
      "station_name": "AEROPARQUE AERO",
      "source": "SMN georef location search"
    },
    "10709": {
      "id": 10709,
      "name": "Las Bayas",
      "department": "Ñorquincó",
      "province": "Río Negro",
      "station_number": 87774,
      "forecast_reference_id": 169,
      "lon": -70.6708,
      "lat": -41.4497,
      "distance_km": 165.98,
      "station_name": "MAQUINCHAO",
      "source": "SMN georef location search"
    },
    "10720": {
      "id": 10720,
      "name": "Alberti",
      "department": "Oberá",
      "province": "Misiones",
      "station_number": 87187,
      "forecast_reference_id": 9743,
      "lon": -55.2705,
      "lat": -27.3748,
      "distance_km": 18.28,
      "station_name": "OBERA",
      "source": "SMN georef location search"
    },
    "10790": {
      "id": 10790,
      "name": "Playa Unión",
      "department": "Rawson",
      "province": "Chubut",
      "station_number": 87828,
      "forecast_reference_id": 5888,
      "lon": -65.039,
      "lat": -43.3121,
      "distance_km": 22.82,
      "station_name": "TRELEW AERO",
      "source": "SMN georef location search"
    },
    "10800": {
      "id": 10800,
      "name": "Isla del Cerrito",
      "department": "Bermejo",
      "province": "Chaco",
      "station_number": 87155,
      "forecast_reference_id": 5648,
      "lon": -58.6149,
      "lat": -27.2898,
      "distance_km": 45.74,
      "station_name": "RESISTENCIA AERO",
      "source": "SMN georef location search"
    },
    "10861": {
      "id": 10861,
      "name": "Isla de los Estados",
      "department": null,
      "province": "Tierra del Fuego, Antártida e Islas del Atlántico Sur",
      "station_number": 87934,
      "forecast_reference_id": 5908,
      "lon": -64.3909,
      "lat": -54.7975,
      "distance_km": 246.79,
      "station_name": "RIO GRANDE B.A.",
      "source": "SMN georef location search"
    },
    "10873": {
      "id": 10873,
      "name": "Parque Nacional Campos del Tuyú",
      "department": null,
      "province": "Buenos Aires",
      "station_number": 87648,
      "forecast_reference_id": 4159,
      "lon": -56.8667,
      "lat": -36.35,
      "distance_km": 76.42,
      "station_name": "DOLORES AERO",
      "source": "SMN georef location search"
    },
    "10955": {
      "id": 10955,
      "name": "Villa Maria del Rio Seco",
      "department": "Río Seco",
      "province": "Córdoba",
      "station_number": 87244,
      "forecast_reference_id": 10955,
      "lon": -63.7167,
      "lat": -29.9,
      "distance_km": 1.23,
      "station_name": "VILLA DE MARIA DEL RIO SECO",
      "source": "SMN georef location search"
    }
  }
}
