{
  "schema_version": 1,
  "source": "SMN georef location search",
  "endpoint": "https://ws1.smn.gob.ar/v1/georef/location/search",
  "generated_at": "2026-06-29T05:48:48.890524+00:00",
  "count": 2114,
  "locations": {
    "16": {
      "id": 16,
      "name": "Isla Diez",
      "department": "General Roca",
      "province": "Río Negro",
      "station_number": 87719,
      "forecast_reference_id": 19,
      "lon": -67.9223,
      "lat": -38.9938,
      "distance_km": 7.6,
      "station_name": "CIPOLLETTI",
      "source": "SMN georef location search"
    },
    "33": {
      "id": 33,
      "name": "Bajo Hondo",
      "department": "Avellaneda",
      "province": "Río Negro",
      "station_number": 87736,
      "forecast_reference_id": 30,
      "lon": -65.7864,
      "lat": -39.0512,
      "distance_km": 147.3,
      "station_name": "RIO COLORADO",
      "source": "SMN georef location search"
    },
    "64": {
      "id": 64,
      "name": "Mallín Grande",
      "department": "El Cuy",
      "province": "Río Negro",
      "station_number": 87774,
      "forecast_reference_id": 169,
      "lon": -68.4282,
      "lat": -39.5788,
      "distance_km": 186.4,
      "station_name": "MAQUINCHAO",
      "source": "SMN georef location search"
    },
    "73": {
      "id": 73,
      "name": "General Conesa",
      "department": "Conesa",
      "province": "Río Negro",
      "station_number": 87784,
      "forecast_reference_id": 131,
      "lon": -64.4525,
      "lat": -40.1081,
      "distance_km": 87.2,
      "station_name": "SAN ANTONIO OESTE AERO",
      "source": "SMN georef location search"
    },
    "90": {
      "id": 90,
      "name": "Chasico",
      "department": "El Cuy",
      "province": "Río Negro",
      "station_number": 87774,
      "forecast_reference_id": 169,
      "lon": -68.973,
      "lat": -40.2967,
      "distance_km": 107.57,
      "station_name": "MAQUINCHAO",
      "source": "SMN georef location search"
    },
    "96": {
      "id": 96,
      "name": "Laguna Blanca",
      "department": "Pilcaniyeu",
      "province": "Río Negro",
      "station_number": 87774,
      "forecast_reference_id": 169,
      "lon": -69.8406,
      "lat": -40.7267,
      "distance_km": 111.39,
      "station_name": "MAQUINCHAO",
      "source": "SMN georef location search"
    },
    "104": {
      "id": 104,
      "name": "Corralito",
      "department": "Pilcaniyeu",
      "province": "Río Negro",
      "station_number": 87774,
      "forecast_reference_id": 169,
      "lon": -70.7034,
      "lat": -40.7198,
      "distance_km": 177.85,
      "station_name": "MAQUINCHAO",
      "source": "SMN georef location search"
    },
    "109": {
      "id": 109,
      "name": "Aguada Cecilio",
      "department": "Valcheta",
      "province": "Río Negro",
      "station_number": 87784,
      "forecast_reference_id": 131,
      "lon": -65.7885,
      "lat": -40.8575,
      "distance_km": 64.89,
      "station_name": "SAN ANTONIO OESTE AERO",
      "source": "SMN georef location search"
    },
    "118": {
      "id": 118,
      "name": "Los Álamos",
      "department": "San Antonio",
      "province": "Río Negro",
      "station_number": 87784,
      "forecast_reference_id": 117,
      "lon": -65.0507,
      "lat": -40.7786,
      "distance_km": 2.91,
      "station_name": "SAN ANTONIO OESTE AERO",
      "source": "SMN georef location search"
    },
    "133": {
      "id": 133,
      "name": "El Bolsón",
      "department": "Bariloche",
      "province": "Río Negro",
      "station_number": 87800,
      "forecast_reference_id": 137,
      "lon": -71.5355,
      "lat": -41.9683,
      "distance_km": 1.59,
      "station_name": "EL BOLSON AERO",
      "source": "SMN georef location search"
    },
    "141": {
      "id": 141,
      "name": "Reserva Cañumil",
      "department": "Ñorquincó",
      "province": "Río Negro",
      "station_number": 87774,
      "forecast_reference_id": 169,
      "lon": -70.6917,
      "lat": -41.6063,
      "distance_km": 170.76,
      "station_name": "MAQUINCHAO",
      "source": "SMN georef location search"
    },
    "145": {
      "id": 145,
      "name": "Mallín Ahogado",
      "department": "Bariloche",
      "province": "Río Negro",
      "station_number": 87800,
      "forecast_reference_id": 137,
      "lon": -71.5008,
      "lat": -41.8496,
      "distance_km": 11.92,
      "station_name": "EL BOLSON AERO",
      "source": "SMN georef location search"
    },
    "152": {
      "id": 152,
      "name": "Mallin Escondido",
      "department": "Pilcaniyeu",
      "province": "Río Negro",
      "station_number": 87774,
      "forecast_reference_id": 169,
      "lon": -70.5917,
      "lat": -41.3635,
      "distance_km": 158.44,
      "station_name": "MAQUINCHAO",
      "source": "SMN georef location search"
    },
    "154": {
      "id": 154,
      "name": "Río Chico",
      "department": "Ñorquincó",
      "province": "Río Negro",
      "station_number": 87774,
      "forecast_reference_id": 169,
      "lon": -70.4756,
      "lat": -41.7127,
      "distance_km": 156.66,
      "station_name": "MAQUINCHAO",
      "source": "SMN georef location search"
    },
    "176": {
      "id": 176,
      "name": "Aguada de Guerra",
      "department": "25 de Mayo",
      "province": "Río Negro",
      "station_number": 87774,
      "forecast_reference_id": 169,
      "lon": -68.3831,
      "lat": -41.0667,
      "distance_km": 33.53,
      "station_name": "MAQUINCHAO",
      "source": "SMN georef location search"
    },
    "179": {
      "id": 179,
      "name": "Rincón de Camico",
      "department": "9 de Julio",
      "province": "Río Negro",
      "station_number": 87774,
      "forecast_reference_id": 169,
      "lon": -67.4546,
      "lat": -41.1369,
      "distance_km": 105.69,
      "station_name": "MAQUINCHAO",
      "source": "SMN georef location search"
    },
    "205": {
      "id": 205,
      "name": "San Juan",
      "department": "Iruyá",
      "province": "Salta",
      "station_number": 87007,
      "forecast_reference_id": 204,
      "lon": -65.2274,
      "lat": -22.7286,
      "distance_km": 79.19,
      "station_name": "LA QUIACA OBSERVATORIO",
      "source": "SMN georef location search"
    },
    "208": {
      "id": 208,
      "name": "San Francisco",
      "department": "Santa Victoria",
      "province": "Salta",
      "station_number": 87007,
      "forecast_reference_id": 204,
      "lon": -65.2591,
      "lat": -22.4089,
      "distance_km": 48.84,
      "station_name": "LA QUIACA OBSERVATORIO",
      "source": "SMN georef location search"
    },
    "212": {
      "id": 212,
      "name": "Potrerillos",
      "department": "Santa Victoria",
      "province": "Salta",
      "station_number": 87007,
      "forecast_reference_id": 204,
      "lon": -65.136,
      "lat": -22.3072,
      "distance_km": 52.97,
      "station_name": "LA QUIACA OBSERVATORIO",
      "source": "SMN georef location search"
    },
    "222": {
      "id": 222,
      "name": "San Pedro",
      "department": "Iruyá",
      "province": "Salta",
      "station_number": 87007,
      "forecast_reference_id": 204,
      "lon": -65.1235,
      "lat": -22.6384,
      "distance_km": 76.98,
      "station_name": "LA QUIACA OBSERVATORIO",
      "source": "SMN georef location search"
    },
    "249": {
      "id": 249,
      "name": "Chorro",
      "department": "Santa Victoria",
      "province": "Salta",
      "station_number": 87007,
      "forecast_reference_id": 204,
      "lon": -64.9209,
      "lat": -22.2872,
      "distance_km": 73.0,
      "station_name": "LA QUIACA OBSERVATORIO",
      "source": "SMN georef location search"
    },
    "258": {
      "id": 258,
      "name": "Isla de Cañas",
      "department": "Iruyá",
      "province": "Salta",
      "station_number": 87016,
      "forecast_reference_id": 291,
      "lon": -64.6668,
      "lat": -22.8963,
      "distance_km": 44.99,
      "station_name": "ORAN AERO",
      "source": "SMN georef location search"
    },
    "265": {
      "id": 265,
      "name": "Papachacra",
      "department": "Santa Victoria",
      "province": "Salta",
      "station_number": 87007,
      "forecast_reference_id": 204,
      "lon": -64.9329,
      "lat": -22.2632,
      "distance_km": 71.11,
      "station_name": "LA QUIACA OBSERVATORIO",
      "source": "SMN georef location search"
    },
    "279": {
      "id": 279,
      "name": "San Francisco",
      "department": "General José de San Martín",
      "province": "Salta",
      "station_number": 87022,
      "forecast_reference_id": 291,
      "lon": -63.8935,
      "lat": -22.0778,
      "distance_km": 60.49,
      "station_name": "TARTAGAL AERO",
      "source": "SMN georef location search"
    },
    "297": {
      "id": 297,
      "name": "Arenales",
      "department": "General José de San Martín",
      "province": "Salta",
      "station_number": 87022,
      "forecast_reference_id": 291,
      "lon": -63.6986,
      "lat": -22.069,
      "distance_km": 61.47,
      "station_name": "TARTAGAL AERO",
      "source": "SMN georef location search"
    },
    "299": {
      "id": 299,
      "name": "Playa Ancha",
      "department": "General José de San Martín",
      "province": "Salta",
      "station_number": 87022,
      "forecast_reference_id": 291,
      "lon": -63.6808,
      "lat": -22.1017,
      "distance_km": 58.25,
      "station_name": "TARTAGAL AERO",
      "source": "SMN georef location search"
    },
    "308": {
      "id": 308,
      "name": "Yerba Buena",
      "department": "General José de San Martín",
      "province": "Salta",
      "station_number": 87022,
      "forecast_reference_id": 291,
      "lon": -63.6773,
      "lat": -22.0857,
      "distance_km": 60.06,
      "station_name": "TARTAGAL AERO",
      "source": "SMN georef location search"
    },
    "313": {
      "id": 313,
      "name": "San José",
      "department": "General José de San Martín",
      "province": "Salta",
      "station_number": 87022,
      "forecast_reference_id": 291,
      "lon": -63.679,
      "lat": -22.9203,
      "distance_km": 35.73,
      "station_name": "TARTAGAL AERO",
      "source": "SMN georef location search"
    },
    "317": {
      "id": 317,
      "name": "Corralito",
      "department": "General José de San Martín",
      "province": "Salta",
      "station_number": 87022,
      "forecast_reference_id": 291,
      "lon": -63.5266,
      "lat": -22.9015,
      "distance_km": 42.0,
      "station_name": "TARTAGAL AERO",
      "source": "SMN georef location search"
    },
    "321": {
      "id": 321,
      "name": "Bella Vista",
      "department": "General José de San Martín",
      "province": "Salta",
      "station_number": 87022,
      "forecast_reference_id": 291,
      "lon": -63.5197,
      "lat": -22.3364,
      "distance_km": 42.12,
      "station_name": "TARTAGAL AERO",
      "source": "SMN georef location search"
    },
    "322": {
      "id": 322,
      "name": "La Represa",
      "department": "General José de San Martín",
      "province": "Salta",
      "station_number": 87022,
      "forecast_reference_id": 291,
      "lon": -63.5585,
      "lat": -22.2926,
      "distance_km": 43.44,
      "station_name": "TARTAGAL AERO",
      "source": "SMN georef location search"
    },
    "330": {
      "id": 330,
      "name": "El Porvenir",
      "department": "General José de San Martín",
      "province": "Salta",
      "station_number": 87022,
      "forecast_reference_id": 291,
      "lon": -63.4689,
      "lat": -22.8507,
      "distance_km": 42.48,
      "station_name": "TARTAGAL AERO",
      "source": "SMN georef location search"
    },
    "332": {
      "id": 332,
      "name": "El Retiro",
      "department": "General José de San Martín",
      "province": "Salta",
      "station_number": 87022,
      "forecast_reference_id": 291,
      "lon": -63.4204,
      "lat": -22.9242,
      "distance_km": 51.5,
      "station_name": "TARTAGAL AERO",
      "source": "SMN georef location search"
    },
    "338": {
      "id": 338,
      "name": "El Zorro",
      "department": "General José de San Martín",
      "province": "Salta",
      "station_number": 87022,
      "forecast_reference_id": 291,
      "lon": -63.2438,
      "lat": -22.9874,
      "distance_km": 70.05,
      "station_name": "TARTAGAL AERO",
      "source": "SMN georef location search"
    },
    "355": {
      "id": 355,
      "name": "Santa María",
      "department": "Orán",
      "province": "Salta",
      "station_number": 87016,
      "forecast_reference_id": 291,
      "lon": -64.4879,
      "lat": -23.2699,
      "distance_km": 20.74,
      "station_name": "ORAN AERO",
      "source": "SMN georef location search"
    },
    "356": {
      "id": 356,
      "name": "Colonia Santa Rosa",
      "department": "Orán",
      "province": "Salta",
      "station_number": 87016,
      "forecast_reference_id": 291,
      "lon": -64.4259,
      "lat": -23.3954,
      "distance_km": 28.47,
      "station_name": "ORAN AERO",
      "source": "SMN georef location search"
    },
    "369": {
      "id": 369,
      "name": "Vinalito",
      "department": "Orán",
      "province": "Salta",
      "station_number": 87016,
      "forecast_reference_id": 291,
      "lon": -64.1446,
      "lat": -23.4392,
      "distance_km": 36.68,
      "station_name": "ORAN AERO",
      "source": "SMN georef location search"
    },
    "376": {
      "id": 376,
      "name": "La Estrella",
      "department": "Orán",
      "province": "Salta",
      "station_number": 87016,
      "forecast_reference_id": 291,
      "lon": -64.0768,
      "lat": -23.8254,
      "distance_km": 78.59,
      "station_name": "ORAN AERO",
      "source": "SMN georef location search"
    },
    "377": {
      "id": 377,
      "name": "Martínez del Tineo",
      "department": "Orán",
      "province": "Salta",
      "station_number": 87016,
      "forecast_reference_id": 291,
      "lon": -64.0583,
      "lat": -23.9035,
      "distance_km": 87.39,
      "station_name": "ORAN AERO",
      "source": "SMN georef location search"
    },
    "396": {
      "id": 396,
      "name": "Buena Vista",
      "department": "Orán",
      "province": "Salta",
      "station_number": 87016,
      "forecast_reference_id": 291,
      "lon": -63.5231,
      "lat": -23.494,
      "distance_km": 90.51,
      "station_name": "ORAN AERO",
      "source": "SMN georef location search"
    },
    "405": {
      "id": 405,
      "name": "San Fermin",
      "department": "Rivadavia",
      "province": "Salta",
      "station_number": 87065,
      "forecast_reference_id": 794,
      "lon": -63.316,
      "lat": -23.9641,
      "distance_km": 50.07,
      "station_name": "RIVADAVIA",
      "source": "SMN georef location search"
    },
    "407": {
      "id": 407,
      "name": "La Estrella",
      "department": "Rivadavia",
      "province": "Salta",
      "station_number": 87065,
      "forecast_reference_id": 794,
      "lon": -63.2328,
      "lat": -23.9247,
      "distance_km": 45.53,
      "station_name": "RIVADAVIA",
      "source": "SMN georef location search"
    },
    "410": {
      "id": 410,
      "name": "El Talar",
      "department": "Rivadavia",
      "province": "Salta",
      "station_number": 87022,
      "forecast_reference_id": 291,
      "lon": -63.2853,
      "lat": -23.6165,
      "distance_km": 122.49,
      "station_name": "TARTAGAL AERO",
      "source": "SMN georef location search"
    },
    "422": {
      "id": 422,
      "name": "La Unión",
      "department": "Rivadavia",
      "province": "Salta",
      "station_number": 87065,
      "forecast_reference_id": 794,
      "lon": -63.1932,
      "lat": -23.8968,
      "distance_km": 44.65,
      "station_name": "RIVADAVIA",
      "source": "SMN georef location search"
    },
    "423": {
      "id": 423,
      "name": "La Toma",
      "department": "Rivadavia",
      "province": "Salta",
      "station_number": 87065,
      "forecast_reference_id": 794,
      "lon": -63.1583,
      "lat": -23.7447,
      "distance_km": 56.09,
      "station_name": "RIVADAVIA",
      "source": "SMN georef location search"
    },
    "437": {
      "id": 437,
      "name": "El Potrero del Tambo",
      "department": "Rosario de Lerma",
      "province": "Salta",
      "station_number": 87047,
      "forecast_reference_id": 896,
      "lon": -65.7565,
      "lat": -24.2783,
      "distance_km": 68.85,
      "station_name": "SALTA AERO",
      "source": "SMN georef location search"
    },
    "440": {
      "id": 440,
      "name": "San Bernardo de Las Zorras",
      "department": "Rosario de Lerma",
      "province": "Salta",
      "station_number": 87047,
      "forecast_reference_id": 896,
      "lon": -65.7825,
      "lat": -24.4205,
      "distance_km": 56.29,
      "station_name": "SALTA AERO",
      "source": "SMN georef location search"
    },
    "449": {
      "id": 449,
      "name": "Corralitos",
      "department": "Rosario de Lerma",
      "province": "Salta",
      "station_number": 87047,
      "forecast_reference_id": 454,
      "lon": -65.7293,
      "lat": -24.9742,
      "distance_km": 29.38,
      "station_name": "SALTA AERO",
      "source": "SMN georef location search"
    },
    "456": {
      "id": 456,
      "name": "San Luis",
      "department": "Rosario de Lerma",
      "province": "Salta",
      "station_number": 87047,
      "forecast_reference_id": 454,
      "lon": -65.5443,
      "lat": -24.8501,
      "distance_km": 6.96,
      "station_name": "SALTA AERO",
      "source": "SMN georef location search"
    },
    "459": {
      "id": 459,
      "name": "La Blanca",
      "department": "Rosario de Lerma",
      "province": "Salta",
      "station_number": 87047,
      "forecast_reference_id": 454,
      "lon": -65.5281,
      "lat": -24.9085,
      "distance_km": 8.86,
      "station_name": "SALTA AERO",
      "source": "SMN georef location search"
    },
    "461": {
      "id": 461,
      "name": "Piedras Blancas",
      "department": "Rosario de Lerma",
      "province": "Salta",
      "station_number": 87047,
      "forecast_reference_id": 454,
      "lon": -65.6554,
      "lat": -24.9979,
      "distance_km": 24.87,
      "station_name": "SALTA AERO",
      "source": "SMN georef location search"
    },
    "465": {
      "id": 465,
      "name": "La Falda",
      "department": "Cerrillos",
      "province": "Salta",
      "station_number": 87047,
      "forecast_reference_id": 454,
      "lon": -65.4758,
      "lat": -24.9348,
      "distance_km": 10.02,
      "station_name": "SALTA AERO",
      "source": "SMN georef location search"
    },
    "467": {
      "id": 467,
      "name": "Los Pinos",
      "department": "Cerrillos",
      "province": "Salta",
      "station_number": 87047,
      "forecast_reference_id": 454,
      "lon": -65.4243,
      "lat": -24.9266,
      "distance_km": 10.49,
      "station_name": "SALTA AERO",
      "source": "SMN georef location search"
    },
    "471": {
      "id": 471,
      "name": "San Agustín",
      "department": "Cerrillos",
      "province": "Salta",
      "station_number": 87047,
      "forecast_reference_id": 454,
      "lon": -65.4387,
      "lat": -24.998,
      "distance_km": 17.43,
      "station_name": "SALTA AERO",
      "source": "SMN georef location search"
    },
    "473": {
      "id": 473,
      "name": "La Candelaria",
      "department": "Cerrillos",
      "province": "Salta",
      "station_number": 87047,
      "forecast_reference_id": 454,
      "lon": -65.3698,
      "lat": -24.9034,
      "distance_km": 12.55,
      "station_name": "SALTA AERO",
      "source": "SMN georef location search"
    },
    "475": {
      "id": 475,
      "name": "San Francisco",
      "department": "Capital",
      "province": "Salta",
      "station_number": 87047,
      "forecast_reference_id": 454,
      "lon": -65.2646,
      "lat": -24.9503,
      "distance_km": 24.35,
      "station_name": "SALTA AERO",
      "source": "SMN georef location search"
    },
    "476": {
      "id": 476,
      "name": "La Isla",
      "department": "Cerrillos",
      "province": "Salta",
      "station_number": 87047,
      "forecast_reference_id": 454,
      "lon": -65.4019,
      "lat": -24.8715,
      "distance_km": 8.05,
      "station_name": "SALTA AERO",
      "source": "SMN georef location search"
    },
    "478": {
      "id": 478,
      "name": "Cobos",
      "department": "General Martín M. de Güemes",
      "province": "Salta",
      "station_number": 87047,
      "forecast_reference_id": 454,
      "lon": -65.08,
      "lat": -24.7414,
      "distance_km": 41.61,
      "station_name": "SALTA AERO",
      "source": "SMN georef location search"
    },
    "482": {
      "id": 482,
      "name": "El Sauce",
      "department": "General Martín M. de Güemes",
      "province": "Salta",
      "station_number": 87050,
      "forecast_reference_id": 1018,
      "lon": -65.1733,
      "lat": -24.5968,
      "distance_km": 104.71,
      "station_name": "METAN",
      "source": "SMN georef location search"
    },
    "486": {
      "id": 486,
      "name": "Saladillo",
      "department": "General Martín M. de Güemes",
      "province": "Salta",
      "station_number": 87050,
      "forecast_reference_id": 1018,
      "lon": -64.9862,
      "lat": -24.5922,
      "distance_km": 103.26,
      "station_name": "METAN",
      "source": "SMN georef location search"
    },
    "510": {
      "id": 510,
      "name": "El Rodeo Grande",
      "department": "Anta",
      "province": "Salta",
      "station_number": 87050,
      "forecast_reference_id": 1018,
      "lon": -64.5296,
      "lat": -24.9062,
      "distance_km": 81.76,
      "station_name": "METAN",
      "source": "SMN georef location search"
    },
    "515": {
      "id": 515,
      "name": "El Porvenir",
      "department": "Rosario de Lerma",
      "province": "Salta",
      "station_number": 87047,
      "forecast_reference_id": 454,
      "lon": -65.5598,
      "lat": -24.9126,
      "distance_km": 11.37,
      "station_name": "SALTA AERO",
      "source": "SMN georef location search"
    },
    "522": {
      "id": 522,
      "name": "Potrerillos",
      "department": "Anta",
      "province": "Salta",
      "station_number": 87050,
      "forecast_reference_id": 1018,
      "lon": -64.3769,
      "lat": -24.6679,
      "distance_km": 112.31,
      "station_name": "METAN",
      "source": "SMN georef location search"
    },
    "523": {
      "id": 523,
      "name": "La Quinta",
      "department": "Anta",
      "province": "Salta",
      "station_number": 87050,
      "forecast_reference_id": 1018,
      "lon": -64.1976,
      "lat": -24.4685,
      "distance_km": 140.73,
      "station_name": "METAN",
      "source": "SMN georef location search"
    },
    "530": {
      "id": 530,
      "name": "El Dorado",
      "department": "Anta",
      "province": "Salta",
      "station_number": 87050,
      "forecast_reference_id": 1018,
      "lon": -64.1554,
      "lat": -24.5273,
      "distance_km": 137.86,
      "station_name": "METAN",
      "source": "SMN georef location search"
    },
    "546": {
      "id": 546,
      "name": "San Vicente",
      "department": "Anta",
      "province": "Salta",
      "station_number": 87050,
      "forecast_reference_id": 1018,
      "lon": -63.8741,
      "lat": -24.4058,
      "distance_km": 166.32,
      "station_name": "METAN",
      "source": "SMN georef location search"
    },
    "552": {
      "id": 552,
      "name": "San Ignacio",
      "department": "Anta",
      "province": "Salta",
      "station_number": 87050,
      "forecast_reference_id": 1018,
      "lon": -63.4099,
      "lat": -24.6349,
      "distance_km": 185.93,
      "station_name": "METAN",
      "source": "SMN georef location search"
    },
    "565": {
      "id": 565,
      "name": "La Providencia",
      "department": "Anta",
      "province": "Salta",
      "station_number": 87050,
      "forecast_reference_id": 1018,
      "lon": -63.2677,
      "lat": -24.6366,
      "distance_km": 198.15,
      "station_name": "METAN",
      "source": "SMN georef location search"
    },
    "583": {
      "id": 583,
      "name": "Magdalena",
      "department": "Rivadavia",
      "province": "Salta",
      "station_number": 87065,
      "forecast_reference_id": 794,
      "lon": -62.9381,
      "lat": -22.0095,
      "distance_km": 241.02,
      "station_name": "RIVADAVIA",
      "source": "SMN georef location search"
    },
    "598": {
      "id": 598,
      "name": "La Providencia",
      "department": "Rivadavia",
      "province": "Salta",
      "station_number": 87065,
      "forecast_reference_id": 794,
      "lon": -62.7962,
      "lat": -22.7252,
      "distance_km": 161.97,
      "station_name": "RIVADAVIA",
      "source": "SMN georef location search"
    },
    "602": {
      "id": 602,
      "name": "San Bernardo",
      "department": "Rivadavia",
      "province": "Salta",
      "station_number": 87065,
      "forecast_reference_id": 794,
      "lon": -62.6131,
      "lat": -22.6056,
      "distance_km": 177.17,
      "station_name": "RIVADAVIA",
      "source": "SMN georef location search"
    },
    "630": {
      "id": 630,
      "name": "Corralitos",
      "department": "Los Andes",
      "province": "Salta",
      "station_number": 87047,
      "forecast_reference_id": 765,
      "lon": -66.289,
      "lat": -23.957,
      "distance_km": 128.31,
      "station_name": "SALTA AERO",
      "source": "SMN georef location search"
    },
    "684": {
      "id": 684,
      "name": "El Chañaral",
      "department": "Rivadavia",
      "province": "Salta",
      "station_number": 87065,
      "forecast_reference_id": 794,
      "lon": -62.9555,
      "lat": -23.9508,
      "distance_km": 26.9,
      "station_name": "RIVADAVIA",
      "source": "SMN georef location search"
    },
    "692": {
      "id": 692,
      "name": "El Paraíso",
      "department": "Rivadavia",
      "province": "Salta",
      "station_number": 87065,
      "forecast_reference_id": 794,
      "lon": -62.7758,
      "lat": -23.843,
      "distance_km": 39.56,
      "station_name": "RIVADAVIA",
      "source": "SMN georef location search"
    },
    "713": {
      "id": 713,
      "name": "San Luis",
      "department": "Rivadavia",
      "province": "Salta",
      "station_number": 87065,
      "forecast_reference_id": 794,
      "lon": -62.7791,
      "lat": -23.1774,
      "distance_km": 112.17,
      "station_name": "RIVADAVIA",
      "source": "SMN georef location search"
    },
    "714": {
      "id": 714,
      "name": "Santa Lucía",
      "department": "Rivadavia",
      "province": "Salta",
      "station_number": 87065,
      "forecast_reference_id": 794,
      "lon": -62.6625,
      "lat": -23.1169,
      "distance_km": 120.52,
      "station_name": "RIVADAVIA",
      "source": "SMN georef location search"
    },
    "721": {
      "id": 721,
      "name": "El Recreo",
      "department": "Rivadavia",
      "province": "Salta",
      "station_number": 87065,
      "forecast_reference_id": 794,
      "lon": -62.7368,
      "lat": -23.4614,
      "distance_km": 81.62,
      "station_name": "RIVADAVIA",
      "source": "SMN georef location search"
    },
    "749": {
      "id": 749,
      "name": "Corralito",
      "department": "Rivadavia",
      "province": "Salta",
      "station_number": 87065,
      "forecast_reference_id": 794,
      "lon": -62.3768,
      "lat": -23.0723,
      "distance_km": 133.8,
      "station_name": "RIVADAVIA",
      "source": "SMN georef location search"
    },
    "760": {
      "id": 760,
      "name": "Piedras Blancas",
      "department": "Los Andes",
      "province": "Salta",
      "station_number": 87047,
      "forecast_reference_id": 765,
      "lon": -66.2995,
      "lat": -24.2704,
      "distance_km": 104.91,
      "station_name": "SALTA AERO",
      "source": "SMN georef location search"
    },
    "763": {
      "id": 763,
      "name": "Planta Mina La Poma",
      "department": "Los Andes",
      "province": "Salta",
      "station_number": 87047,
      "forecast_reference_id": 765,
      "lon": -66.4428,
      "lat": -24.232,
      "distance_km": 119.17,
      "station_name": "SALTA AERO",
      "source": "SMN georef location search"
    },
    "766": {
      "id": 766,
      "name": "Pueblo Nuevo",
      "department": "Los Andes",
      "province": "Salta",
      "station_number": 87047,
      "forecast_reference_id": 765,
      "lon": -66.3169,
      "lat": -24.1974,
      "distance_km": 111.36,
      "station_name": "SALTA AERO",
      "source": "SMN georef location search"
    },
    "769": {
      "id": 769,
      "name": "Cóndor Huasi",
      "department": "Los Andes",
      "province": "Salta",
      "station_number": 87047,
      "forecast_reference_id": 765,
      "lon": -66.2218,
      "lat": -24.3397,
      "distance_km": 93.99,
      "station_name": "SALTA AERO",
      "source": "SMN georef location search"
    },
    "780": {
      "id": 780,
      "name": "El Rodeo",
      "department": "Poma",
      "province": "Salta",
      "station_number": 87047,
      "forecast_reference_id": 896,
      "lon": -66.1381,
      "lat": -24.8734,
      "distance_km": 67.02,
      "station_name": "SALTA AERO",
      "source": "SMN georef location search"
    },
    "783": {
      "id": 783,
      "name": "Punta del Agua",
      "department": "Cachi",
      "province": "Salta",
      "station_number": 87047,
      "forecast_reference_id": 896,
      "lon": -66.0479,
      "lat": -24.8939,
      "distance_km": 58.08,
      "station_name": "SALTA AERO",
      "source": "SMN georef location search"
    },
    "786": {
      "id": 786,
      "name": "Las Cuevas",
      "department": "Rosario de Lerma",
      "province": "Salta",
      "station_number": 87047,
      "forecast_reference_id": 896,
      "lon": -66.0144,
      "lat": -24.3541,
      "distance_km": 76.97,
      "station_name": "SALTA AERO",
      "source": "SMN georef location search"
    },
    "802": {
      "id": 802,
      "name": "Martín García",
      "department": "Rivadavia",
      "province": "Salta",
      "station_number": 87065,
      "forecast_reference_id": 794,
      "lon": -62.7763,
      "lat": -24.2171,
      "distance_km": 11.75,
      "station_name": "RIVADAVIA",
      "source": "SMN georef location search"
    },
    "808": {
      "id": 808,
      "name": "San Nicolás",
      "department": "Rivadavia",
      "province": "Salta",
      "station_number": 87065,
      "forecast_reference_id": 794,
      "lon": -62.6518,
      "lat": -24.0796,
      "distance_km": 26.59,
      "station_name": "RIVADAVIA",
      "source": "SMN georef location search"
    },
    "815": {
      "id": 815,
      "name": "El Totoral",
      "department": "Rivadavia",
      "province": "Salta",
      "station_number": 87065,
      "forecast_reference_id": 794,
      "lon": -62.5598,
      "lat": -24.2281,
      "distance_km": 33.54,
      "station_name": "RIVADAVIA",
      "source": "SMN georef location search"
    },
    "823": {
      "id": 823,
      "name": "Santa María",
      "department": "Rivadavia",
      "province": "Salta",
      "station_number": 87065,
      "forecast_reference_id": 794,
      "lon": -62.4483,
      "lat": -24.3092,
      "distance_km": 46.58,
      "station_name": "RIVADAVIA",
      "source": "SMN georef location search"
    },
    "824": {
      "id": 824,
      "name": "Concepción",
      "department": "Rivadavia",
      "province": "Salta",
      "station_number": 87065,
      "forecast_reference_id": 794,
      "lon": -62.4256,
      "lat": -24.1075,
      "distance_km": 47.64,
      "station_name": "RIVADAVIA",
      "source": "SMN georef location search"
    },
    "828": {
      "id": 828,
      "name": "San Agustín",
      "department": "Rivadavia",
      "province": "Salta",
      "station_number": 87065,
      "forecast_reference_id": 794,
      "lon": -62.4634,
      "lat": -24.0285,
      "distance_km": 46.4,
      "station_name": "RIVADAVIA",
      "source": "SMN georef location search"
    },
    "838": {
      "id": 838,
      "name": "El Porvenir",
      "department": "Rivadavia",
      "province": "Salta",
      "station_number": 87065,
      "forecast_reference_id": 794,
      "lon": -62.3887,
      "lat": -24.3711,
      "distance_km": 54.58,
      "station_name": "RIVADAVIA",
      "source": "SMN georef location search"
    },
    "843": {
      "id": 843,
      "name": "La Puerta",
      "department": "Molinos",
      "province": "Salta",
      "station_number": 87047,
      "forecast_reference_id": 896,
      "lon": -66.4415,
      "lat": -25.2897,
      "distance_km": 109.22,
      "station_name": "SALTA AERO",
      "source": "SMN georef location search"
    },
    "847": {
      "id": 847,
      "name": "Las Cuevas",
      "department": "Cachi",
      "province": "Salta",
      "station_number": 87047,
      "forecast_reference_id": 896,
      "lon": -66.3388,
      "lat": -25.0724,
      "distance_km": 90.74,
      "station_name": "SALTA AERO",
      "source": "SMN georef location search"
    },
    "853": {
      "id": 853,
      "name": "Hualfín",
      "department": "San Carlos",
      "province": "Salta",
      "station_number": 87047,
      "forecast_reference_id": 896,
      "lon": -66.4046,
      "lat": -25.7661,
      "distance_km": 138.47,
      "station_name": "SALTA AERO",
      "source": "SMN georef location search"
    },
    "859": {
      "id": 859,
      "name": "La Puerta",
      "department": "San Carlos",
      "province": "Salta",
      "station_number": 87050,
      "forecast_reference_id": 896,
      "lon": -66.0345,
      "lat": -25.8679,
      "distance_km": 113.15,
      "station_name": "METAN",
      "source": "SMN georef location search"
    },
    "869": {
      "id": 869,
      "name": "Santa Elena",
      "department": "San Carlos",
      "province": "Salta",
      "station_number": 87047,
      "forecast_reference_id": 896,
      "lon": -66.169,
      "lat": -25.6484,
      "distance_km": 113.19,
      "station_name": "SALTA AERO",
      "source": "SMN georef location search"
    },
    "870": {
      "id": 870,
      "name": "El Carmen",
      "department": "San Carlos",
      "province": "Salta",
      "station_number": 87047,
      "forecast_reference_id": 896,
      "lon": -66.1676,
      "lat": -25.6374,
      "distance_km": 112.15,
      "station_name": "SALTA AERO",
      "source": "SMN georef location search"
    },
    "871": {
      "id": 871,
      "name": "La Isla",
      "department": "San Carlos",
      "province": "Salta",
      "station_number": 87047,
      "forecast_reference_id": 896,
      "lon": -66.1599,
      "lat": -25.6426,
      "distance_km": 112.12,
      "station_name": "SALTA AERO",
      "source": "SMN georef location search"
    },
    "887": {
      "id": 887,
      "name": "Rancagua",
      "department": "Cachi",
      "province": "Salta",
      "station_number": 87047,
      "forecast_reference_id": 896,
      "lon": -66.1814,
      "lat": -25.1925,
      "distance_km": 81.0,
      "station_name": "SALTA AERO",
      "source": "SMN georef location search"
    },
    "929": {
      "id": 929,
      "name": "San Miguel",
      "department": "Cerrillos",
      "province": "Salta",
      "station_number": 87047,
      "forecast_reference_id": 454,
      "lon": -65.4052,
      "lat": -25.0802,
      "distance_km": 27.08,
      "station_name": "SALTA AERO",
      "source": "SMN georef location search"
    },
    "938": {
      "id": 938,
      "name": "Bella Vista",
      "department": "Chicoana",
      "province": "Salta",
      "station_number": 87047,
      "forecast_reference_id": 454,
      "lon": -65.5806,
      "lat": -25.0588,
      "distance_km": 26.01,
      "station_name": "SALTA AERO",
      "source": "SMN georef location search"
    },
    "943": {
      "id": 943,
      "name": "El Durazno",
      "department": "Chicoana",
      "province": "Salta",
      "station_number": 87047,
      "forecast_reference_id": 454,
      "lon": -65.7348,
      "lat": -25.1313,
      "distance_km": 41.16,
      "station_name": "SALTA AERO",
      "source": "SMN georef location search"
    },
    "946": {
      "id": 946,
      "name": "La Ciénaga",
      "department": "Cachi",
      "province": "Salta",
      "station_number": 87047,
      "forecast_reference_id": 896,
      "lon": -65.9269,
      "lat": -25.1304,
      "distance_km": 55.49,
      "station_name": "SALTA AERO",
      "source": "SMN georef location search"
    },
    "953": {
      "id": 953,
      "name": "El Rodeo",
      "department": "Chicoana",
      "province": "Salta",
      "station_number": 87047,
      "forecast_reference_id": 454,
      "lon": -65.7605,
      "lat": -25.1546,
      "distance_km": 44.8,
      "station_name": "SALTA AERO",
      "source": "SMN georef location search"
    },
    "954": {
      "id": 954,
      "name": "San Fernando",
      "department": "Chicoana",
      "province": "Salta",
      "station_number": 87047,
      "forecast_reference_id": 454,
      "lon": -65.7458,
      "lat": -25.1817,
      "distance_km": 46.26,
      "station_name": "SALTA AERO",
      "source": "SMN georef location search"
    },
    "959": {
      "id": 959,
      "name": "Viñaco",
      "department": "Chicoana",
      "province": "Salta",
      "station_number": 87047,
      "forecast_reference_id": 454,
      "lon": -65.4981,
      "lat": -25.1713,
      "distance_km": 36.29,
      "station_name": "SALTA AERO",
      "source": "SMN georef location search"
    },
    "964": {
      "id": 964,
      "name": "El Rodeo",
      "department": "La Viña",
      "province": "Salta",
      "station_number": 87047,
      "forecast_reference_id": 454,
      "lon": -65.4804,
      "lat": -25.2233,
      "distance_km": 41.98,
      "station_name": "SALTA AERO",
      "source": "SMN georef location search"
    },
    "965": {
      "id": 965,
      "name": "Santo Domingo",
      "department": "Anta",
      "province": "Salta",
      "station_number": 87050,
      "forecast_reference_id": 1018,
      "lon": -64.88,
      "lat": -25.2194,
      "distance_km": 35.05,
      "station_name": "METAN",
      "source": "SMN georef location search"
    },
    "984": {
      "id": 984,
      "name": "Papachacra",
      "department": "San Carlos",
      "province": "Salta",
      "station_number": 87047,
      "forecast_reference_id": 896,
      "lon": -65.8979,
      "lat": -25.3277,
      "distance_km": 68.41,
      "station_name": "SALTA AERO",
      "source": "SMN georef location search"
    },
    "1007": {
      "id": 1007,
      "name": "Saladillo",
      "department": "Metán",
      "province": "Salta",
      "station_number": 87050,
      "forecast_reference_id": 1018,
      "lon": -64.5989,
      "lat": -25.4937,
      "distance_km": 37.76,
      "station_name": "METAN",
      "source": "SMN georef location search"
    },
    "1014": {
      "id": 1014,
      "name": "El Retiro",
      "department": "Metán",
      "province": "Salta",
      "station_number": 87050,
      "forecast_reference_id": 1018,
      "lon": -64.8536,
      "lat": -25.4931,
      "distance_km": 12.49,
      "station_name": "METAN",
      "source": "SMN georef location search"
    },
    "1019": {
      "id": 1019,
      "name": "Rodeo Grande",
      "department": "Metán",
      "province": "Salta",
      "station_number": 87050,
      "forecast_reference_id": 1018,
      "lon": -65.0656,
      "lat": -25.4981,
      "distance_km": 9.76,
      "station_name": "METAN",
      "source": "SMN georef location search"
    },
    "1021": {
      "id": 1021,
      "name": "Las Chacras",
      "department": "Metán",
      "province": "Salta",
      "station_number": 87050,
      "forecast_reference_id": 1018,
      "lon": -65.0799,
      "lat": -25.4305,
      "distance_km": 14.95,
      "station_name": "METAN",
      "source": "SMN georef location search"
    },
    "1027": {
      "id": 1027,
      "name": "San Nicolás",
      "department": "La Viña",
      "province": "Salta",
      "station_number": 87047,
      "forecast_reference_id": 454,
      "lon": -65.5549,
      "lat": -25.4361,
      "distance_km": 66.04,
      "station_name": "SALTA AERO",
      "source": "SMN georef location search"
    },
    "1034": {
      "id": 1034,
      "name": "Las Juntas",
      "department": "San Carlos",
      "province": "Salta",
      "station_number": 87047,
      "forecast_reference_id": 896,
      "lon": -65.8328,
      "lat": -25.4839,
      "distance_km": 79.47,
      "station_name": "SALTA AERO",
      "source": "SMN georef location search"
    },
    "1039": {
      "id": 1039,
      "name": "La Ciénaga",
      "department": "La Viña",
      "province": "Salta",
      "station_number": 87047,
      "forecast_reference_id": 454,
      "lon": -65.6969,
      "lat": -25.5608,
      "distance_km": 82.44,
      "station_name": "SALTA AERO",
      "source": "SMN georef location search"
    },
    "1053": {
      "id": 1053,
      "name": "Las Juntas",
      "department": "Metán",
      "province": "Salta",
      "station_number": 87050,
      "forecast_reference_id": 1018,
      "lon": -64.8839,
      "lat": -25.5882,
      "distance_km": 11.41,
      "station_name": "METAN",
      "source": "SMN georef location search"
    },
    "1069": {
      "id": 1069,
      "name": "Santa María",
      "department": "Metán",
      "province": "Salta",
      "station_number": 87050,
      "forecast_reference_id": 1018,
      "lon": -64.8505,
      "lat": -25.6016,
      "distance_km": 14.99,
      "station_name": "METAN",
      "source": "SMN georef location search"
    },
    "1078": {
      "id": 1078,
      "name": "El Rodeo",
      "department": "Guachipas",
      "province": "Salta",
      "station_number": 87047,
      "forecast_reference_id": 454,
      "lon": -65.5381,
      "lat": -25.6761,
      "distance_km": 92.35,
      "station_name": "SALTA AERO",
      "source": "SMN georef location search"
    },
    "1082": {
      "id": 1082,
      "name": "Las Chacras",
      "department": "La Viña",
      "province": "Salta",
      "station_number": 87047,
      "forecast_reference_id": 454,
      "lon": -65.7269,
      "lat": -25.6718,
      "distance_km": 95.09,
      "station_name": "SALTA AERO",
      "source": "SMN georef location search"
    },
    "1084": {
      "id": 1084,
      "name": "Saladillo",
      "department": "San Carlos",
      "province": "Salta",
      "station_number": 87047,
      "forecast_reference_id": 454,
      "lon": -65.789,
      "lat": -25.6472,
      "distance_km": 94.37,
      "station_name": "SALTA AERO",
      "source": "SMN georef location search"
    },
    "1090": {
      "id": 1090,
      "name": "Las Juntas",
      "department": "Guachipas",
      "province": "Salta",
      "station_number": 87047,
      "forecast_reference_id": 454,
      "lon": -65.5513,
      "lat": -25.7005,
      "distance_km": 95.15,
      "station_name": "SALTA AERO",
      "source": "SMN georef location search"
    },
    "1099": {
      "id": 1099,
      "name": "La Tabaquería",
      "department": "Rosario de La Frontera",
      "province": "Salta",
      "station_number": 87050,
      "forecast_reference_id": 1018,
      "lon": -65.0252,
      "lat": -25.7449,
      "distance_km": 25.0,
      "station_name": "METAN",
      "source": "SMN georef location search"
    },
    "1113": {
      "id": 1113,
      "name": "El Sauce",
      "department": "Rosario de La Frontera",
      "province": "Salta",
      "station_number": 87050,
      "forecast_reference_id": 1018,
      "lon": -64.7742,
      "lat": -25.7811,
      "distance_km": 34.75,
      "station_name": "METAN",
      "source": "SMN georef location search"
    },
    "1114": {
      "id": 1114,
      "name": "Vinalito",
      "department": "Rosario de La Frontera",
      "province": "Salta",
      "station_number": 87050,
      "forecast_reference_id": 1018,
      "lon": -64.8265,
      "lat": -25.7915,
      "distance_km": 33.05,
      "station_name": "METAN",
      "source": "SMN georef location search"
    },
    "1120": {
      "id": 1120,
      "name": "El Porvenir",
      "department": "Rosario de La Frontera",
      "province": "Salta",
      "station_number": 87050,
      "forecast_reference_id": 1018,
      "lon": -64.9861,
      "lat": -25.8141,
      "distance_km": 32.13,
      "station_name": "METAN",
      "source": "SMN georef location search"
    },
    "1126": {
      "id": 1126,
      "name": "La Ciénaga",
      "department": "Rosario de La Frontera",
      "province": "Salta",
      "station_number": 87050,
      "forecast_reference_id": 1018,
      "lon": -65.131,
      "lat": -25.7876,
      "distance_km": 33.21,
      "station_name": "METAN",
      "source": "SMN georef location search"
    },
    "1140": {
      "id": 1140,
      "name": "Los Castillos",
      "department": "Guachipas",
      "province": "Salta",
      "station_number": 87047,
      "forecast_reference_id": 454,
      "lon": -65.719,
      "lat": -25.902,
      "distance_km": 119.7,
      "station_name": "SALTA AERO",
      "source": "SMN georef location search"
    },
    "1143": {
      "id": 1143,
      "name": "La Ciénaga",
      "department": "Guachipas",
      "province": "Salta",
      "station_number": 87047,
      "forecast_reference_id": 454,
      "lon": -65.6083,
      "lat": -25.924,
      "distance_km": 120.34,
      "station_name": "SALTA AERO",
      "source": "SMN georef location search"
    },
    "1164": {
      "id": 1164,
      "name": "San Esteban",
      "department": "Rosario de La Frontera",
      "province": "Salta",
      "station_number": 87050,
      "forecast_reference_id": 1018,
      "lon": -65.0046,
      "lat": -25.9944,
      "distance_km": 52.18,
      "station_name": "METAN",
      "source": "SMN georef location search"
    },
    "1172": {
      "id": 1172,
      "name": "Las Conchas",
      "department": "Cafayate",
      "province": "Salta",
      "station_number": 87050,
      "forecast_reference_id": 896,
      "lon": -65.8236,
      "lat": -25.9954,
      "distance_km": 100.03,
      "station_name": "METAN",
      "source": "SMN georef location search"
    },
    "1174": {
      "id": 1174,
      "name": "Corralito",
      "department": "San Carlos",
      "province": "Salta",
      "station_number": 87050,
      "forecast_reference_id": 896,
      "lon": -65.8557,
      "lat": -25.9639,
      "distance_km": 101.08,
      "station_name": "METAN",
      "source": "SMN georef location search"
    },
    "1176": {
      "id": 1176,
      "name": "Santa Bárbara",
      "department": "Guachipas",
      "province": "Salta",
      "station_number": 87047,
      "forecast_reference_id": 454,
      "lon": -65.7128,
      "lat": -25.9255,
      "distance_km": 122.12,
      "station_name": "SALTA AERO",
      "source": "SMN georef location search"
    },
    "1189": {
      "id": 1189,
      "name": "Santa María",
      "department": "Rosario de La Frontera",
      "province": "Salta",
      "station_number": 87050,
      "forecast_reference_id": 1018,
      "lon": -64.4962,
      "lat": -25.7911,
      "distance_km": 56.26,
      "station_name": "METAN",
      "source": "SMN georef location search"
    },
    "1200": {
      "id": 1200,
      "name": "El Quebrachal",
      "department": "Anta",
      "province": "Salta",
      "station_number": 87050,
      "forecast_reference_id": 1018,
      "lon": -64.0201,
      "lat": -25.3353,
      "distance_km": 98.11,
      "station_name": "METAN",
      "source": "SMN georef location search"
    },
    "1202": {
      "id": 1202,
      "name": "Bella Vista",
      "department": "Anta",
      "province": "Salta",
      "station_number": 87050,
      "forecast_reference_id": 1018,
      "lon": -64.0191,
      "lat": -25.1627,
      "distance_km": 104.04,
      "station_name": "METAN",
      "source": "SMN georef location search"
    },
    "1215": {
      "id": 1215,
      "name": "La Aguada",
      "department": "Anta",
      "province": "Salta",
      "station_number": 87050,
      "forecast_reference_id": 1018,
      "lon": -63.8381,
      "lat": -25.0906,
      "distance_km": 123.96,
      "station_name": "METAN",
      "source": "SMN georef location search"
    },
    "1220": {
      "id": 1220,
      "name": "San Luis",
      "department": "San Carlos",
      "province": "Salta",
      "station_number": 87050,
      "forecast_reference_id": 896,
      "lon": -66.0059,
      "lat": -26.0527,
      "distance_km": 118.99,
      "station_name": "METAN",
      "source": "SMN georef location search"
    },
    "1223": {
      "id": 1223,
      "name": "Loro Huasi",
      "department": "Cafayate",
      "province": "Salta",
      "station_number": 87121,
      "forecast_reference_id": 896,
      "lon": -65.974,
      "lat": -26.1154,
      "distance_km": 117.67,
      "station_name": "TUCUMAN AERO",
      "source": "SMN georef location search"
    },
    "1225": {
      "id": 1225,
      "name": "Potrerillos",
      "department": "Candelaria",
      "province": "Salta",
      "station_number": 87050,
      "forecast_reference_id": 1018,
      "lon": -65.4753,
      "lat": -26.071,
      "distance_km": 78.78,
      "station_name": "METAN",
      "source": "SMN georef location search"
    },
    "1229": {
      "id": 1229,
      "name": "San Pedro",
      "department": "Candelaria",
      "province": "Salta",
      "station_number": 87050,
      "forecast_reference_id": 1018,
      "lon": -65.1235,
      "lat": -26.1158,
      "distance_km": 67.25,
      "station_name": "METAN",
      "source": "SMN georef location search"
    },
    "1230": {
      "id": 1230,
      "name": "Los Mogotes",
      "department": "Candelaria",
      "province": "Salta",
      "station_number": 87050,
      "forecast_reference_id": 1018,
      "lon": -65.1793,
      "lat": -26.0328,
      "distance_km": 60.02,
      "station_name": "METAN",
      "source": "SMN georef location search"
    },
    "1231": {
      "id": 1231,
      "name": "La Candelaria",
      "department": "Candelaria",
      "province": "Salta",
      "station_number": 87050,
      "forecast_reference_id": 1018,
      "lon": -65.0493,
      "lat": -26.1274,
      "distance_km": 67.25,
      "station_name": "METAN",
      "source": "SMN georef location search"
    },
    "1232": {
      "id": 1232,
      "name": "San Antonio",
      "department": "Candelaria",
      "province": "Salta",
      "station_number": 87050,
      "forecast_reference_id": 1018,
      "lon": -64.9543,
      "lat": -26.1923,
      "distance_km": 74.03,
      "station_name": "METAN",
      "source": "SMN georef location search"
    },
    "1237": {
      "id": 1237,
      "name": "El Potrero",
      "department": "Rosario de La Frontera",
      "province": "Salta",
      "station_number": 87050,
      "forecast_reference_id": 1018,
      "lon": -64.6555,
      "lat": -26.0363,
      "distance_km": 65.05,
      "station_name": "METAN",
      "source": "SMN georef location search"
    },
    "1275": {
      "id": 1275,
      "name": "El Retiro",
      "department": "Iglesia",
      "province": "San Juan",
      "station_number": 87305,
      "forecast_reference_id": 1298,
      "lon": -69.259,
      "lat": -30.2925,
      "distance_km": 50.53,
      "station_name": "JACHAL",
      "source": "SMN georef location search"
    },
    "1281": {
      "id": 1281,
      "name": "Bella Vista",
      "department": "Iglesia",
      "province": "San Juan",
      "station_number": 87305,
      "forecast_reference_id": 1298,
      "lon": -69.2293,
      "lat": -30.4207,
      "distance_km": 51.7,
      "station_name": "JACHAL",
      "source": "SMN georef location search"
    },
    "1287": {
      "id": 1287,
      "name": "Huaco",
      "department": "Jachal",
      "province": "San Juan",
      "station_number": 87305,
      "forecast_reference_id": 1298,
      "lon": -68.4836,
      "lat": -30.1558,
      "distance_km": 25.91,
      "station_name": "JACHAL",
      "source": "SMN georef location search"
    },
    "1289": {
      "id": 1289,
      "name": "La Falda",
      "department": "Jachal",
      "province": "San Juan",
      "station_number": 87305,
      "forecast_reference_id": 1298,
      "lon": -68.6651,
      "lat": -30.183,
      "distance_km": 8.78,
      "station_name": "JACHAL",
      "source": "SMN georef location search"
    },
    "1297": {
      "id": 1297,
      "name": "Bella Vista",
      "department": "Jachal",
      "province": "San Juan",
      "station_number": 87305,
      "forecast_reference_id": 1298,
      "lon": -68.7504,
      "lat": -30.2161,
      "distance_km": 1.84,
      "station_name": "JACHAL",
      "source": "SMN georef location search"
    },
    "1307": {
      "id": 1307,
      "name": "Rincón Chico",
      "department": "Valle Fértil",
      "province": "San Juan",
      "station_number": 87305,
      "forecast_reference_id": 1449,
      "lon": -67.7192,
      "lat": -30.2891,
      "distance_km": 98.36,
      "station_name": "JACHAL",
      "source": "SMN georef location search"
    },
    "1314": {
      "id": 1314,
      "name": "La Ciénaga",
      "department": "Jachal",
      "province": "San Juan",
      "station_number": 87305,
      "forecast_reference_id": 1298,
      "lon": -68.7123,
      "lat": -30.4933,
      "distance_km": 29.37,
      "station_name": "JACHAL",
      "source": "SMN georef location search"
    },
    "1319": {
      "id": 1319,
      "name": "Las Juntas",
      "department": "Valle Fértil",
      "province": "San Juan",
      "station_number": 87322,
      "forecast_reference_id": 1449,
      "lon": -67.5884,
      "lat": -30.7292,
      "distance_km": 116.5,
      "station_name": "CHEPES",
      "source": "SMN georef location search"
    },
    "1330": {
      "id": 1330,
      "name": "La Toma",
      "department": "Jachal",
      "province": "San Juan",
      "station_number": 87305,
      "forecast_reference_id": 1285,
      "lon": -68.376,
      "lat": -30.6855,
      "distance_km": 61.42,
      "station_name": "JACHAL",
      "source": "SMN georef location search"
    },
    "1332": {
      "id": 1332,
      "name": "La Ciénaga",
      "department": "Ullum",
      "province": "San Juan",
      "station_number": 87305,
      "forecast_reference_id": 1369,
      "lon": -68.9376,
      "lat": -30.8593,
      "distance_km": 72.39,
      "station_name": "JACHAL",
      "source": "SMN georef location search"
    },
    "1334": {
      "id": 1334,
      "name": "Santa Lucía",
      "department": "Santa Lucía",
      "province": "San Juan",
      "station_number": 87311,
      "forecast_reference_id": 1425,
      "lon": -68.469,
      "lat": -31.5362,
      "distance_km": 6.14,
      "station_name": "SAN JUAN AERO",
      "source": "SMN georef location search"
    },
    "1341": {
      "id": 1341,
      "name": "El Rincón",
      "department": "Albardón",
      "province": "San Juan",
      "station_number": 87311,
      "forecast_reference_id": 1425,
      "lon": -68.5645,
      "lat": -31.4157,
      "distance_km": 22.2,
      "station_name": "SAN JUAN AERO",
      "source": "SMN georef location search"
    },
    "1353": {
      "id": 1353,
      "name": "Bella Vista",
      "department": "Calingasta",
      "province": "San Juan",
      "station_number": 87311,
      "forecast_reference_id": 1369,
      "lon": -69.4648,
      "lat": -31.1472,
      "distance_km": 109.92,
      "station_name": "SAN JUAN AERO",
      "source": "SMN georef location search"
    },
    "1364": {
      "id": 1364,
      "name": "Colón",
      "department": "Calingasta",
      "province": "San Juan",
      "station_number": 87311,
      "forecast_reference_id": 1369,
      "lon": -69.4065,
      "lat": -31.4104,
      "distance_km": 95.26,
      "station_name": "SAN JUAN AERO",
      "source": "SMN georef location search"
    },
    "1368": {
      "id": 1368,
      "name": "La Isla",
      "department": "Calingasta",
      "province": "San Juan",
      "station_number": 87311,
      "forecast_reference_id": 1369,
      "lon": -69.4201,
      "lat": -31.3762,
      "distance_km": 97.33,
      "station_name": "SAN JUAN AERO",
      "source": "SMN georef location search"
    },
    "1422": {
      "id": 1422,
      "name": "Las Chacritas",
      "department": "9 de Julio",
      "province": "San Juan",
      "station_number": 87311,
      "forecast_reference_id": 1425,
      "lon": -68.4227,
      "lat": -31.5936,
      "distance_km": 2.1,
      "station_name": "SAN JUAN AERO",
      "source": "SMN georef location search"
    },
    "1425": {
      "id": 1425,
      "name": "San Juan",
      "department": "Capital",
      "province": "San Juan",
      "station_number": 87311,
      "forecast_reference_id": 1425,
      "lon": -68.5112,
      "lat": -31.5189,
      "distance_km": 10.45,
      "station_name": "SAN JUAN AERO",
      "source": "SMN georef location search"
    },
    "1447": {
      "id": 1447,
      "name": "Las Talas",
      "department": "Caucete",
      "province": "San Juan",
      "station_number": 87311,
      "forecast_reference_id": 1449,
      "lon": -68.27,
      "lat": -31.6067,
      "distance_km": 14.9,
      "station_name": "SAN JUAN AERO",
      "source": "SMN georef location search"
    },
    "1452": {
      "id": 1452,
      "name": "El Rincón",
      "department": "Caucete",
      "province": "San Juan",
      "station_number": 87311,
      "forecast_reference_id": 1449,
      "lon": -68.3234,
      "lat": -31.6496,
      "distance_km": 12.54,
      "station_name": "SAN JUAN AERO",
      "source": "SMN georef location search"
    },
    "1475": {
      "id": 1475,
      "name": "Médanos Blancos",
      "department": "Caucete",
      "province": "San Juan",
      "station_number": 87311,
      "forecast_reference_id": 1449,
      "lon": -67.6608,
      "lat": -31.5978,
      "distance_km": 72.33,
      "station_name": "SAN JUAN AERO",
      "source": "SMN georef location search"
    },
    "1480": {
      "id": 1480,
      "name": "Las Chacras",
      "department": "Caucete",
      "province": "San Juan",
      "station_number": 87311,
      "forecast_reference_id": 1449,
      "lon": -67.5324,
      "lat": -31.2796,
      "distance_km": 90.72,
      "station_name": "SAN JUAN AERO",
      "source": "SMN georef location search"
    },
    "1497": {
      "id": 1497,
      "name": "Martín de Loyola",
      "department": "Gobernador Dupuy",
      "province": "San Luis",
      "station_number": 87616,
      "forecast_reference_id": 1775,
      "lon": -66.3592,
      "lat": -35.7112,
      "distance_km": 100.48,
      "station_name": "VICTORICA",
      "source": "SMN georef location search"
    },
    "1524": {
      "id": 1524,
      "name": "San Antonio",
      "department": "Belgrano",
      "province": "San Luis",
      "station_number": 87436,
      "forecast_reference_id": 1712,
      "lon": -66.8925,
      "lat": -32.6283,
      "distance_km": 87.73,
      "station_name": "SAN LUIS AERO",
      "source": "SMN georef location search"
    },
    "1527": {
      "id": 1527,
      "name": "Las Toscas",
      "department": "Belgrano",
      "province": "San Luis",
      "station_number": 87436,
      "forecast_reference_id": 1712,
      "lon": -66.8585,
      "lat": -32.8455,
      "distance_km": 67.13,
      "station_name": "SAN LUIS AERO",
      "source": "SMN georef location search"
    },
    "1531": {
      "id": 1531,
      "name": "San Pedro",
      "department": "Belgrano",
      "province": "San Luis",
      "station_number": 87436,
      "forecast_reference_id": 1712,
      "lon": -66.6928,
      "lat": -32.9772,
      "distance_km": 45.85,
      "station_name": "SAN LUIS AERO",
      "source": "SMN georef location search"
    },
    "1535": {
      "id": 1535,
      "name": "Paso del Rey",
      "department": "Coronel Pringles",
      "province": "San Luis",
      "station_number": 87436,
      "forecast_reference_id": 1695,
      "lon": -66.0032,
      "lat": -32.9376,
      "distance_km": 49.52,
      "station_name": "SAN LUIS AERO",
      "source": "SMN georef location search"
    },
    "1548": {
      "id": 1548,
      "name": "El Rincón",
      "department": "Ayacucho",
      "province": "San Luis",
      "station_number": 87436,
      "forecast_reference_id": 1695,
      "lon": -66.1853,
      "lat": -32.6642,
      "distance_km": 69.45,
      "station_name": "SAN LUIS AERO",
      "source": "SMN georef location search"
    },
    "1559": {
      "id": 1559,
      "name": "San Cayetano",
      "department": "Belgrano",
      "province": "San Luis",
      "station_number": 87436,
      "forecast_reference_id": 1712,
      "lon": -66.5497,
      "lat": -32.4803,
      "distance_km": 90.02,
      "station_name": "SAN LUIS AERO",
      "source": "SMN georef location search"
    },
    "1568": {
      "id": 1568,
      "name": "Leandro N. Alem",
      "department": "Ayacucho",
      "province": "San Luis",
      "station_number": 87436,
      "forecast_reference_id": 1695,
      "lon": -66.0488,
      "lat": -32.4824,
      "distance_km": 92.3,
      "station_name": "SAN LUIS AERO",
      "source": "SMN georef location search"
    },
    "1569": {
      "id": 1569,
      "name": "La Majada",
      "department": "Ayacucho",
      "province": "San Luis",
      "station_number": 87436,
      "forecast_reference_id": 1695,
      "lon": -66.048,
      "lat": -32.5294,
      "distance_km": 87.38,
      "station_name": "SAN LUIS AERO",
      "source": "SMN georef location search"
    },
    "1575": {
      "id": 1575,
      "name": "Vinagrillo",
      "department": "Ayacucho",
      "province": "San Luis",
      "station_number": 87444,
      "forecast_reference_id": 1601,
      "lon": -66.0244,
      "lat": -32.3991,
      "distance_km": 79.49,
      "station_name": "SANTA ROSA DE CONLARA AERO",
      "source": "SMN georef location search"
    },
    "1578": {
      "id": 1578,
      "name": "Bella Vista",
      "department": "Ayacucho",
      "province": "San Luis",
      "station_number": 87436,
      "forecast_reference_id": 1712,
      "lon": -66.5534,
      "lat": -32.3478,
      "distance_km": 104.5,
      "station_name": "SAN LUIS AERO",
      "source": "SMN georef location search"
    },
    "1584": {
      "id": 1584,
      "name": "La Reforma",
      "department": "Ayacucho",
      "province": "San Luis",
      "station_number": 87322,
      "forecast_reference_id": 1601,
      "lon": -66.265,
      "lat": -32.1794,
      "distance_km": 98.87,
      "station_name": "CHEPES",
      "source": "SMN georef location search"
    },
    "1588": {
      "id": 1588,
      "name": "La Primavera",
      "department": "Ayacucho",
      "province": "San Luis",
      "station_number": 87328,
      "forecast_reference_id": 1601,
      "lon": -65.9899,
      "lat": -32.0391,
      "distance_km": 80.05,
      "station_name": "VILLA DOLORES AERO",
      "source": "SMN georef location search"
    },
    "1592": {
      "id": 1592,
      "name": "Luján",
      "department": "Ayacucho",
      "province": "San Luis",
      "station_number": 87444,
      "forecast_reference_id": 1601,
      "lon": -65.9176,
      "lat": -32.3642,
      "distance_km": 69.44,
      "station_name": "SANTA ROSA DE CONLARA AERO",
      "source": "SMN georef location search"
    },
    "1595": {
      "id": 1595,
      "name": "Buena Vista",
      "department": "Libertador General San Martín",
      "province": "San Luis",
      "station_number": 87436,
      "forecast_reference_id": 1695,
      "lon": -65.7997,
      "lat": -32.8348,
      "distance_km": 70.94,
      "station_name": "SAN LUIS AERO",
      "source": "SMN georef location search"
    },
    "1603": {
      "id": 1603,
      "name": "San Miguel",
      "department": "Ayacucho",
      "province": "San Luis",
      "station_number": 87444,
      "forecast_reference_id": 1601,
      "lon": -65.8062,
      "lat": -32.1529,
      "distance_km": 64.11,
      "station_name": "SANTA ROSA DE CONLARA AERO",
      "source": "SMN georef location search"
    },
    "1607": {
      "id": 1607,
      "name": "Santa María",
      "department": "Ayacucho",
      "province": "San Luis",
      "station_number": 87328,
      "forecast_reference_id": 1601,
      "lon": -65.8254,
      "lat": -32.0092,
      "distance_km": 64.25,
      "station_name": "VILLA DOLORES AERO",
      "source": "SMN georef location search"
    },
    "1613": {
      "id": 1613,
      "name": "La Puerta",
      "department": "Libertador General San Martín",
      "province": "San Luis",
      "station_number": 87444,
      "forecast_reference_id": 1695,
      "lon": -65.698,
      "lat": -32.4947,
      "distance_km": 50.38,
      "station_name": "SANTA ROSA DE CONLARA AERO",
      "source": "SMN georef location search"
    },
    "1615": {
      "id": 1615,
      "name": "El Rincón",
      "department": "Libertador General San Martín",
      "province": "San Luis",
      "station_number": 87444,
      "forecast_reference_id": 1695,
      "lon": -65.7332,
      "lat": -32.7363,
      "distance_km": 65.35,
      "station_name": "SANTA ROSA DE CONLARA AERO",
      "source": "SMN georef location search"
    },
    "1620": {
      "id": 1620,
      "name": "Libertador General San Martín",
      "department": "Libertador General San Martín",
      "province": "San Luis",
      "station_number": 87444,
      "forecast_reference_id": 1695,
      "lon": -65.6752,
      "lat": -32.4107,
      "distance_km": 46.73,
      "station_name": "SANTA ROSA DE CONLARA AERO",
      "source": "SMN georef location search"
    },
    "1623": {
      "id": 1623,
      "name": "Sol de Mayo",
      "department": "Junín",
      "province": "San Luis",
      "station_number": 87444,
      "forecast_reference_id": 1656,
      "lon": -65.5783,
      "lat": -32.1256,
      "distance_km": 46.89,
      "station_name": "SANTA ROSA DE CONLARA AERO",
      "source": "SMN georef location search"
    },
    "1632": {
      "id": 1632,
      "name": "La Ciénaga",
      "department": "Libertador General San Martín",
      "province": "San Luis",
      "station_number": 87444,
      "forecast_reference_id": 1656,
      "lon": -65.4878,
      "lat": -32.4179,
      "distance_km": 29.29,
      "station_name": "SANTA ROSA DE CONLARA AERO",
      "source": "SMN georef location search"
    },
    "1638": {
      "id": 1638,
      "name": "Los Molles",
      "department": "Libertador General San Martín",
      "province": "San Luis",
      "station_number": 87444,
      "forecast_reference_id": 1656,
      "lon": -65.5659,
      "lat": -32.8049,
      "distance_km": 59.53,
      "station_name": "SANTA ROSA DE CONLARA AERO",
      "source": "SMN georef location search"
    },
    "1659": {
      "id": 1659,
      "name": "Punta del Agua",
      "department": "Junín",
      "province": "San Luis",
      "station_number": 87444,
      "forecast_reference_id": 1656,
      "lon": -65.2366,
      "lat": -32.1823,
      "distance_km": 22.46,
      "station_name": "SANTA ROSA DE CONLARA AERO",
      "source": "SMN georef location search"
    },
    "1664": {
      "id": 1664,
      "name": "Las Barrancas",
      "department": "Junín",
      "province": "San Luis",
      "station_number": 87444,
      "forecast_reference_id": 1656,
      "lon": -65.3923,
      "lat": -32.0366,
      "distance_km": 42.92,
      "station_name": "SANTA ROSA DE CONLARA AERO",
      "source": "SMN georef location search"
    },
    "1668": {
      "id": 1668,
      "name": "La Isla",
      "department": "Junín",
      "province": "San Luis",
      "station_number": 87444,
      "forecast_reference_id": 1656,
      "lon": -65.2699,
      "lat": -32.0944,
      "distance_km": 32.68,
      "station_name": "SANTA ROSA DE CONLARA AERO",
      "source": "SMN georef location search"
    },
    "1673": {
      "id": 1673,
      "name": "Los Molles",
      "department": "Junín",
      "province": "San Luis",
      "station_number": 87444,
      "forecast_reference_id": 1670,
      "lon": -65.0187,
      "lat": -32.4425,
      "distance_km": 16.72,
      "station_name": "SANTA ROSA DE CONLARA AERO",
      "source": "SMN georef location search"
    },
    "1676": {
      "id": 1676,
      "name": "Loma Verde",
      "department": "Chacabuco",
      "province": "San Luis",
      "station_number": 87444,
      "forecast_reference_id": 1670,
      "lon": -64.9768,
      "lat": -32.5232,
      "distance_km": 24.91,
      "station_name": "SANTA ROSA DE CONLARA AERO",
      "source": "SMN georef location search"
    },
    "1677": {
      "id": 1677,
      "name": "San Miguel",
      "department": "Chacabuco",
      "province": "San Luis",
      "station_number": 87444,
      "forecast_reference_id": 1670,
      "lon": -64.9795,
      "lat": -32.5454,
      "distance_km": 26.37,
      "station_name": "SANTA ROSA DE CONLARA AERO",
      "source": "SMN georef location search"
    },
    "1679": {
      "id": 1679,
      "name": "San Antonio",
      "department": "Chacabuco",
      "province": "San Luis",
      "station_number": 87444,
      "forecast_reference_id": 1670,
      "lon": -64.9898,
      "lat": -32.5791,
      "distance_km": 28.49,
      "station_name": "SANTA ROSA DE CONLARA AERO",
      "source": "SMN georef location search"
    },
    "1682": {
      "id": 1682,
      "name": "El Recuerdo",
      "department": "Chacabuco",
      "province": "San Luis",
      "station_number": 87444,
      "forecast_reference_id": 1670,
      "lon": -64.9937,
      "lat": -32.7044,
      "distance_km": 40.1,
      "station_name": "SANTA ROSA DE CONLARA AERO",
      "source": "SMN georef location search"
    },
    "1683": {
      "id": 1683,
      "name": "El Sauce",
      "department": "Chacabuco",
      "province": "San Luis",
      "station_number": 87444,
      "forecast_reference_id": 1670,
      "lon": -65.0205,
      "lat": -32.7919,
      "distance_km": 48.17,
      "station_name": "SANTA ROSA DE CONLARA AERO",
      "source": "SMN georef location search"
    },
    "1705": {
      "id": 1705,
      "name": "Las Chacras",
      "department": "Capital",
      "province": "San Luis",
      "station_number": 87436,
      "forecast_reference_id": 1712,
      "lon": -66.2311,
      "lat": -33.2534,
      "distance_km": 11.45,
      "station_name": "SAN LUIS AERO",
      "source": "SMN georef location search"
    },
    "1707": {
      "id": 1707,
      "name": "El Durazno",
      "department": "Coronel Pringles",
      "province": "San Luis",
      "station_number": 87436,
      "forecast_reference_id": 1695,
      "lon": -66.1585,
      "lat": -33.1812,
      "distance_km": 20.75,
      "station_name": "SAN LUIS AERO",
      "source": "SMN georef location search"
    },
    "1712": {
      "id": 1712,
      "name": "San Luis",
      "department": "Capital",
      "province": "San Luis",
      "station_number": 87436,
      "forecast_reference_id": 1712,
      "lon": -66.3331,
      "lat": -33.3039,
      "distance_km": 3.68,
      "station_name": "SAN LUIS AERO",
      "source": "SMN georef location search"
    },
    "1723": {
      "id": 1723,
      "name": "Las Barrancas",
      "department": "Capital",
      "province": "San Luis",
      "station_number": 87436,
      "forecast_reference_id": 1712,
      "lon": -66.2783,
      "lat": -33.6308,
      "distance_km": 40.1,
      "station_name": "SAN LUIS AERO",
      "source": "SMN georef location search"
    },
    "1742": {
      "id": 1742,
      "name": "La Represa",
      "department": "Coronel Pringles",
      "province": "San Luis",
      "station_number": 87436,
      "forecast_reference_id": 1695,
      "lon": -65.9787,
      "lat": -33.0861,
      "distance_km": 40.56,
      "station_name": "SAN LUIS AERO",
      "source": "SMN georef location search"
    },
    "1747": {
      "id": 1747,
      "name": "Saladillo",
      "department": "Coronel Pringles",
      "province": "San Luis",
      "station_number": 87436,
      "forecast_reference_id": 1695,
      "lon": -65.8558,
      "lat": -33.2015,
      "distance_km": 46.89,
      "station_name": "SAN LUIS AERO",
      "source": "SMN georef location search"
    },
    "1751": {
      "id": 1751,
      "name": "El Durazno",
      "department": "General Pedernera",
      "province": "San Luis",
      "station_number": 87448,
      "forecast_reference_id": 1754,
      "lon": -65.3881,
      "lat": -33.9417,
      "distance_km": 24.83,
      "station_name": "VILLA REYNOLDS AERO",
      "source": "SMN georef location search"
    },
    "1758": {
      "id": 1758,
      "name": "La Toma",
      "department": "Coronel Pringles",
      "province": "San Luis",
      "station_number": 87448,
      "forecast_reference_id": 1754,
      "lon": -65.6142,
      "lat": -33.0553,
      "distance_km": 76.85,
      "station_name": "VILLA REYNOLDS AERO",
      "source": "SMN georef location search"
    },
    "1760": {
      "id": 1760,
      "name": "El Guanaco",
      "department": "General Pedernera",
      "province": "San Luis",
      "station_number": 87448,
      "forecast_reference_id": 1670,
      "lon": -65.4976,
      "lat": -33.1314,
      "distance_km": 66.09,
      "station_name": "VILLA REYNOLDS AERO",
      "source": "SMN georef location search"
    },
    "1763": {
      "id": 1763,
      "name": "La Aguada",
      "department": "General Pedernera",
      "province": "San Luis",
      "station_number": 87444,
      "forecast_reference_id": 1670,
      "lon": -65.1185,
      "lat": -33.0465,
      "distance_km": 74.25,
      "station_name": "SANTA ROSA DE CONLARA AERO",
      "source": "SMN georef location search"
    },
    "1799": {
      "id": 1799,
      "name": "La Rosalia",
      "department": "Lago Buenos Aires",
      "province": "Santa Cruz",
      "station_number": 87880,
      "forecast_reference_id": 1827,
      "lon": -71.0812,
      "lat": -46.3899,
      "distance_km": 274.82,
      "station_name": "GOBERNADOR GREGORES AERO",
      "source": "SMN georef location search"
    },
    "1803": {
      "id": 1803,
      "name": "Leandro N. Alem",
      "department": "Lago Buenos Aires",
      "province": "Santa Cruz",
      "station_number": 87880,
      "forecast_reference_id": 1827,
      "lon": -70.2373,
      "lat": -46.1485,
      "distance_km": 292.89,
      "station_name": "GOBERNADOR GREGORES AERO",
      "source": "SMN georef location search"
    },
    "1805": {
      "id": 1805,
      "name": "Aguada de La Bandera",
      "department": "Lago Buenos Aires",
      "province": "Santa Cruz",
      "station_number": 87880,
      "forecast_reference_id": 1827,
      "lon": -69.6715,
      "lat": -46.2525,
      "distance_km": 283.69,
      "station_name": "GOBERNADOR GREGORES AERO",
      "source": "SMN georef location search"
    },
    "1885": {
      "id": 1885,
      "name": "Las Toscas",
      "department": "General Obligado",
      "province": "Santa Fe",
      "station_number": 87270,
      "forecast_reference_id": 2006,
      "lon": -59.2578,
      "lat": -28.3529,
      "distance_km": 103.58,
      "station_name": "RECONQUISTA AERO",
      "source": "SMN georef location search"
    },
    "1895": {
      "id": 1895,
      "name": "San Juan",
      "department": "General Obligado",
      "province": "Santa Fe",
      "station_number": 87270,
      "forecast_reference_id": 2006,
      "lon": -59.5837,
      "lat": -28.2291,
      "distance_km": 108.7,
      "station_name": "RECONQUISTA AERO",
      "source": "SMN georef location search"
    },
    "1904": {
      "id": 1904,
      "name": "Rincón de Amores",
      "department": "General Obligado",
      "province": "Santa Fe",
      "station_number": 87270,
      "forecast_reference_id": 2006,
      "lon": -59.3474,
      "lat": -28.6186,
      "distance_km": 73.24,
      "station_name": "RECONQUISTA AERO",
      "source": "SMN georef location search"
    },
    "1916": {
      "id": 1916,
      "name": "El Triangulo",
      "department": "General Obligado",
      "province": "Santa Fe",
      "station_number": 87270,
      "forecast_reference_id": 2006,
      "lon": -59.5612,
      "lat": -28.8913,
      "distance_km": 37.08,
      "station_name": "RECONQUISTA AERO",
      "source": "SMN georef location search"
    },
    "1926": {
      "id": 1926,
      "name": "Florida",
      "department": "Vera",
      "province": "Santa Fe",
      "station_number": 87270,
      "forecast_reference_id": 2006,
      "lon": -59.9947,
      "lat": -28.6687,
      "distance_km": 66.31,
      "station_name": "RECONQUISTA AERO",
      "source": "SMN georef location search"
    },
    "1958": {
      "id": 1958,
      "name": "San Bernardo",
      "department": "9 de Julio",
      "province": "Santa Fe",
      "station_number": 87257,
      "forecast_reference_id": 1967,
      "lon": -61.5201,
      "lat": -28.6729,
      "distance_km": 139.3,
      "station_name": "CERES AERO",
      "source": "SMN georef location search"
    },
    "1965": {
      "id": 1965,
      "name": "El Recuerdo",
      "department": "San Cristóbal",
      "province": "Santa Fe",
      "station_number": 87257,
      "forecast_reference_id": 1967,
      "lon": -61.723,
      "lat": -29.9607,
      "distance_km": 22.63,
      "station_name": "CERES AERO",
      "source": "SMN georef location search"
    },
    "1973": {
      "id": 1973,
      "name": "El Ombuzal",
      "department": "Vera",
      "province": "Santa Fe",
      "station_number": 87270,
      "forecast_reference_id": 2006,
      "lon": -60.2549,
      "lat": -29.1483,
      "distance_km": 54.98,
      "station_name": "RECONQUISTA AERO",
      "source": "SMN georef location search"
    },
    "1977": {
      "id": 1977,
      "name": "El 38",
      "department": "Vera",
      "province": "Santa Fe",
      "station_number": 87270,
      "forecast_reference_id": 2006,
      "lon": -60.5438,
      "lat": -29.4821,
      "distance_km": 88.11,
      "station_name": "RECONQUISTA AERO",
      "source": "SMN georef location search"
    },
    "1989": {
      "id": 1989,
      "name": "Santa Lucía",
      "department": "Vera",
      "province": "Santa Fe",
      "station_number": 87270,
      "forecast_reference_id": 2006,
      "lon": -60.3688,
      "lat": -29.2661,
      "distance_km": 66.01,
      "station_name": "RECONQUISTA AERO",
      "source": "SMN georef location search"
    },
    "1996": {
      "id": 1996,
      "name": "Tres Lagunas",
      "department": "Vera",
      "province": "Santa Fe",
      "station_number": 87270,
      "forecast_reference_id": 2006,
      "lon": -60.7542,
      "lat": -29.5248,
      "distance_km": 108.93,
      "station_name": "RECONQUISTA AERO",
      "source": "SMN georef location search"
    },
    "2000": {
      "id": 2000,
      "name": "El Carmen",
      "department": "General Obligado",
      "province": "Santa Fe",
      "station_number": 87270,
      "forecast_reference_id": 2006,
      "lon": -59.6608,
      "lat": -29.0454,
      "distance_km": 17.98,
      "station_name": "RECONQUISTA AERO",
      "source": "SMN georef location search"
    },
    "2017": {
      "id": 2017,
      "name": "La Esmeralda",
      "department": "General Obligado",
      "province": "Santa Fe",
      "station_number": 87270,
      "forecast_reference_id": 2006,
      "lon": -59.6962,
      "lat": -29.3212,
      "distance_km": 12.87,
      "station_name": "RECONQUISTA AERO",
      "source": "SMN georef location search"
    },
    "2082": {
      "id": 2082,
      "name": "La Lucila",
      "department": "San Cristóbal",
      "province": "Santa Fe",
      "station_number": 87257,
      "forecast_reference_id": 1967,
      "lon": -61.0025,
      "lat": -30.4203,
      "distance_km": 108.33,
      "station_name": "CERES AERO",
      "source": "SMN georef location search"
    },
    "2097": {
      "id": 2097,
      "name": "San Bernardo",
      "department": "San Justo",
      "province": "Santa Fe",
      "station_number": 87257,
      "forecast_reference_id": 1967,
      "lon": -60.5854,
      "lat": -30.8922,
      "distance_km": 171.91,
      "station_name": "CERES AERO",
      "source": "SMN georef location search"
    },
    "2108": {
      "id": 2108,
      "name": "La Blanca",
      "department": "San Justo",
      "province": "Santa Fe",
      "station_number": 87257,
      "forecast_reference_id": 1967,
      "lon": -60.4583,
      "lat": -30.2036,
      "distance_km": 147.09,
      "station_name": "CERES AERO",
      "source": "SMN georef location search"
    },
    "2141": {
      "id": 2141,
      "name": "San Antonio",
      "department": "Castellanos",
      "province": "Santa Fe",
      "station_number": 87360,
      "forecast_reference_id": 2060,
      "lon": -61.7256,
      "lat": -31.2115,
      "distance_km": 21.84,
      "station_name": "RAFAELA AERO",
      "source": "SMN georef location search"
    },
    "2149": {
      "id": 2149,
      "name": "San Vicente",
      "department": "Castellanos",
      "province": "Santa Fe",
      "station_number": 87360,
      "forecast_reference_id": 2060,
      "lon": -61.5679,
      "lat": -31.6984,
      "distance_km": 47.0,
      "station_name": "RAFAELA AERO",
      "source": "SMN georef location search"
    },
    "2154": {
      "id": 2154,
      "name": "San Jorge",
      "department": "San Martín",
      "province": "Santa Fe",
      "station_number": 87360,
      "forecast_reference_id": 2060,
      "lon": -61.8614,
      "lat": -31.8937,
      "distance_km": 76.05,
      "station_name": "RAFAELA AERO",
      "source": "SMN georef location search"
    },
    "2205": {
      "id": 2205,
      "name": "Pilar",
      "department": "Las Colonias",
      "province": "Santa Fe",
      "station_number": 87360,
      "forecast_reference_id": 2060,
      "lon": -61.2592,
      "lat": -31.4391,
      "distance_km": 29.81,
      "station_name": "RAFAELA AERO",
      "source": "SMN georef location search"
    },
    "2217": {
      "id": 2217,
      "name": "San Agustín",
      "department": "Las Colonias",
      "province": "Santa Fe",
      "station_number": 87360,
      "forecast_reference_id": 2060,
      "lon": -60.9405,
      "lat": -31.6837,
      "distance_km": 70.37,
      "station_name": "RAFAELA AERO",
      "source": "SMN georef location search"
    },
    "2225": {
      "id": 2225,
      "name": "Santo Domingo",
      "department": "Las Colonias",
      "province": "Santa Fe",
      "station_number": 87360,
      "forecast_reference_id": 2060,
      "lon": -60.8879,
      "lat": -31.1212,
      "distance_km": 61.73,
      "station_name": "RAFAELA AERO",
      "source": "SMN georef location search"
    },
    "2255": {
      "id": 2255,
      "name": "Montes de Oca",
      "department": "Belgrano",
      "province": "Santa Fe",
      "station_number": 87360,
      "forecast_reference_id": 2060,
      "lon": -61.7698,
      "lat": -32.5663,
      "distance_km": 145.01,
      "station_name": "RAFAELA AERO",
      "source": "SMN georef location search"
    },
    "2290": {
      "id": 2290,
      "name": "Salto Grande",
      "department": "Iriondo",
      "province": "Santa Fe",
      "station_number": 87480,
      "forecast_reference_id": 2278,
      "lon": -61.0876,
      "lat": -32.6679,
      "distance_km": 39.1,
      "station_name": "ROSARIO AERO",
      "source": "SMN georef location search"
    },
    "2335": {
      "id": 2335,
      "name": "Santa Isabel",
      "department": "General López",
      "province": "Santa Fe",
      "station_number": 87468,
      "forecast_reference_id": 2317,
      "lon": -61.6926,
      "lat": -33.8883,
      "distance_km": 33.79,
      "station_name": "VENADO TUERTO AERO",
      "source": "SMN georef location search"
    },
    "2340": {
      "id": 2340,
      "name": "San Francisco de Santa Fe",
      "department": "General López",
      "province": "Santa Fe",
      "station_number": 87468,
      "forecast_reference_id": 2317,
      "lon": -62.1233,
      "lat": -33.5882,
      "distance_km": 18.29,
      "station_name": "VENADO TUERTO AERO",
      "source": "SMN georef location search"
    },
    "2352": {
      "id": 2352,
      "name": "Pavón",
      "department": "Constitución",
      "province": "Santa Fe",
      "station_number": 87480,
      "forecast_reference_id": 2278,
      "lon": -60.405,
      "lat": -33.2409,
      "distance_km": 51.01,
      "station_name": "ROSARIO AERO",
      "source": "SMN georef location search"
    },
    "2389": {
      "id": 2389,
      "name": "Pavón Arriba",
      "department": "Constitución",
      "province": "Santa Fe",
      "station_number": 87480,
      "forecast_reference_id": 2278,
      "lon": -60.8219,
      "lat": -33.3126,
      "distance_km": 45.01,
      "station_name": "ROSARIO AERO",
      "source": "SMN georef location search"
    },
    "2401": {
      "id": 2401,
      "name": "Máximo Paz",
      "department": "Constitución",
      "province": "Santa Fe",
      "station_number": 87480,
      "forecast_reference_id": 2278,
      "lon": -60.9555,
      "lat": -33.4838,
      "distance_km": 65.86,
      "station_name": "ROSARIO AERO",
      "source": "SMN georef location search"
    },
    "2420": {
      "id": 2420,
      "name": "Los Ángeles",
      "department": "General López",
      "province": "Santa Fe",
      "station_number": 87468,
      "forecast_reference_id": 2317,
      "lon": -61.7003,
      "lat": -34.0553,
      "distance_km": 47.91,
      "station_name": "VENADO TUERTO AERO",
      "source": "SMN georef location search"
    },
    "2424": {
      "id": 2424,
      "name": "El Porvenir",
      "department": "General López",
      "province": "Santa Fe",
      "station_number": 87468,
      "forecast_reference_id": 2317,
      "lon": -62.7215,
      "lat": -34.3268,
      "distance_km": 100.21,
      "station_name": "VENADO TUERTO AERO",
      "source": "SMN georef location search"
    },
    "2427": {
      "id": 2427,
      "name": "Lazzarino",
      "department": "General López",
      "province": "Santa Fe",
      "station_number": 87468,
      "forecast_reference_id": 2317,
      "lon": -62.4265,
      "lat": -34.1651,
      "distance_km": 68.69,
      "station_name": "VENADO TUERTO AERO",
      "source": "SMN georef location search"
    },
    "2443": {
      "id": 2443,
      "name": "Pueblo Nuevo",
      "department": "Copo",
      "province": "Santiago del Estero",
      "station_number": 87050,
      "forecast_reference_id": 2474,
      "lon": -63.7325,
      "lat": -25.9851,
      "distance_km": 134.51,
      "station_name": "METAN",
      "source": "SMN georef location search"
    },
    "2445": {
      "id": 2445,
      "name": "La Candelaria",
      "department": "Copo",
      "province": "Santiago del Estero",
      "station_number": 87050,
      "forecast_reference_id": 2474,
      "lon": -63.7732,
      "lat": -25.8921,
      "distance_km": 127.12,
      "station_name": "METAN",
      "source": "SMN georef location search"
    },
    "2468": {
      "id": 2468,
      "name": "San Ignacio",
      "department": "Copo",
      "province": "Santiago del Estero",
      "station_number": 87065,
      "forecast_reference_id": 2474,
      "lon": -62.9308,
      "lat": -25.6769,
      "distance_km": 165.29,
      "station_name": "RIVADAVIA",
      "source": "SMN georef location search"
    },
    "2472": {
      "id": 2472,
      "name": "San Antonio",
      "department": "Copo",
      "province": "Santiago del Estero",
      "station_number": 87065,
      "forecast_reference_id": 2474,
      "lon": -62.8643,
      "lat": -25.7776,
      "distance_km": 176.4,
      "station_name": "RIVADAVIA",
      "source": "SMN georef location search"
    },
    "2493": {
      "id": 2493,
      "name": "La Represa",
      "department": "Copo",
      "province": "Santiago del Estero",
      "station_number": 87065,
      "forecast_reference_id": 3278,
      "lon": -62.3378,
      "lat": -25.8982,
      "distance_km": 197.66,
      "station_name": "RIVADAVIA",
      "source": "SMN georef location search"
    },
    "2499": {
      "id": 2499,
      "name": "El Rincón",
      "department": "Jimenez",
      "province": "Santiago del Estero",
      "station_number": 87127,
      "forecast_reference_id": 2819,
      "lon": -64.7028,
      "lat": -26.9581,
      "distance_km": 64.91,
      "station_name": "TERMAS DE RIO HONDO AERO",
      "source": "SMN georef location search"
    },
    "2500": {
      "id": 2500,
      "name": "Villa María",
      "department": "Jimenez",
      "province": "Santiago del Estero",
      "station_number": 87127,
      "forecast_reference_id": 2819,
      "lon": -64.5939,
      "lat": -26.7187,
      "distance_km": 93.55,
      "station_name": "TERMAS DE RIO HONDO AERO",
      "source": "SMN georef location search"
    },
    "2508": {
      "id": 2508,
      "name": "Martín García",
      "department": "Jimenez",
      "province": "Santiago del Estero",
      "station_number": 87127,
      "forecast_reference_id": 2819,
      "lon": -64.5234,
      "lat": -26.7038,
      "distance_km": 97.79,
      "station_name": "TERMAS DE RIO HONDO AERO",
      "source": "SMN georef location search"
    },
    "2521": {
      "id": 2521,
      "name": "El Descanso",
      "department": "Pellegrini",
      "province": "Santiago del Estero",
      "station_number": 87121,
      "forecast_reference_id": 2474,
      "lon": -64.4689,
      "lat": -26.5202,
      "distance_km": 72.71,
      "station_name": "TUCUMAN AERO",
      "source": "SMN georef location search"
    },
    "2522": {
      "id": 2522,
      "name": "San Juan",
      "department": "Pellegrini",
      "province": "Santiago del Estero",
      "station_number": 87121,
      "forecast_reference_id": 2474,
      "lon": -64.4241,
      "lat": -26.5105,
      "distance_km": 77.14,
      "station_name": "TUCUMAN AERO",
      "source": "SMN georef location search"
    },
    "2528": {
      "id": 2528,
      "name": "La Isla",
      "department": "Jimenez",
      "province": "Santiago del Estero",
      "station_number": 87127,
      "forecast_reference_id": 2819,
      "lon": -64.45,
      "lat": -26.7163,
      "distance_km": 99.83,
      "station_name": "TERMAS DE RIO HONDO AERO",
      "source": "SMN georef location search"
    },
    "2541": {
      "id": 2541,
      "name": "Vinal Pozo",
      "department": "Pellegrini",
      "province": "Santiago del Estero",
      "station_number": 87050,
      "forecast_reference_id": 2474,
      "lon": -64.3164,
      "lat": -26.2137,
      "distance_km": 100.81,
      "station_name": "METAN",
      "source": "SMN georef location search"
    },
    "2547": {
      "id": 2547,
      "name": "El Porvenir",
      "department": "Pellegrini",
      "province": "Santiago del Estero",
      "station_number": 87121,
      "forecast_reference_id": 2474,
      "lon": -64.3779,
      "lat": -26.3258,
      "distance_km": 92.24,
      "station_name": "TUCUMAN AERO",
      "source": "SMN georef location search"
    },
    "2556": {
      "id": 2556,
      "name": "El Rincón del Carmen",
      "department": "Jimenez",
      "province": "Santiago del Estero",
      "station_number": 87127,
      "forecast_reference_id": 2819,
      "lon": -64.3275,
      "lat": -26.6994,
      "distance_km": 107.76,
      "station_name": "TERMAS DE RIO HONDO AERO",
      "source": "SMN georef location search"
    },
    "2573": {
      "id": 2573,
      "name": "El Quemado",
      "department": "Pellegrini",
      "province": "Santiago del Estero",
      "station_number": 87050,
      "forecast_reference_id": 2474,
      "lon": -64.1744,
      "lat": -26.2004,
      "distance_km": 109.62,
      "station_name": "METAN",
      "source": "SMN georef location search"
    },
    "2586": {
      "id": 2586,
      "name": "Las Lomas",
      "department": "Pellegrini",
      "province": "Santiago del Estero",
      "station_number": 87121,
      "forecast_reference_id": 2474,
      "lon": -64.0907,
      "lat": -26.424,
      "distance_km": 111.21,
      "station_name": "TUCUMAN AERO",
      "source": "SMN georef location search"
    },
    "2590": {
      "id": 2590,
      "name": "La Blanca",
      "department": "Pellegrini",
      "province": "Santiago del Estero",
      "station_number": 87121,
      "forecast_reference_id": 2474,
      "lon": -64.115,
      "lat": -26.5756,
      "distance_km": 103.02,
      "station_name": "TUCUMAN AERO",
      "source": "SMN georef location search"
    },
    "2593": {
      "id": 2593,
      "name": "Las Chacras",
      "department": "Pellegrini",
      "province": "Santiago del Estero",
      "station_number": 87121,
      "forecast_reference_id": 2474,
      "lon": -64.1171,
      "lat": -26.6738,
      "distance_km": 100.26,
      "station_name": "TUCUMAN AERO",
      "source": "SMN georef location search"
    },
    "2598": {
      "id": 2598,
      "name": "Corral Quemado",
      "department": "Pellegrini",
      "province": "Santiago del Estero",
      "station_number": 87050,
      "forecast_reference_id": 2474,
      "lon": -64.0899,
      "lat": -26.2106,
      "distance_km": 116.68,
      "station_name": "METAN",
      "source": "SMN georef location search"
    },
    "2601": {
      "id": 2601,
      "name": "Arenales",
      "department": "Pellegrini",
      "province": "Santiago del Estero",
      "station_number": 87121,
      "forecast_reference_id": 2474,
      "lon": -64.1006,
      "lat": -26.4088,
      "distance_km": 111.03,
      "station_name": "TUCUMAN AERO",
      "source": "SMN georef location search"
    },
    "2605": {
      "id": 2605,
      "name": "La Falda",
      "department": "Pellegrini",
      "province": "Santiago del Estero",
      "station_number": 87121,
      "forecast_reference_id": 2474,
      "lon": -64.0254,
      "lat": -26.6696,
      "distance_km": 109.32,
      "station_name": "TUCUMAN AERO",
      "source": "SMN georef location search"
    },
    "2609": {
      "id": 2609,
      "name": "Ranchos",
      "department": "Figueroa",
      "province": "Santiago del Estero",
      "station_number": 87129,
      "forecast_reference_id": 2474,
      "lon": -63.9367,
      "lat": -26.9646,
      "distance_km": 94.65,
      "station_name": "SANTIAGO DEL ESTERO AERO",
      "source": "SMN georef location search"
    },
    "2611": {
      "id": 2611,
      "name": "La Fortuna",
      "department": "Jimenez",
      "province": "Santiago del Estero",
      "station_number": 87129,
      "forecast_reference_id": 2474,
      "lon": -63.9172,
      "lat": -26.8147,
      "distance_km": 110.84,
      "station_name": "SANTIAGO DEL ESTERO AERO",
      "source": "SMN georef location search"
    },
    "2617": {
      "id": 2617,
      "name": "San Jorge",
      "department": "Pellegrini",
      "province": "Santiago del Estero",
      "station_number": 87121,
      "forecast_reference_id": 2474,
      "lon": -63.9584,
      "lat": -26.4688,
      "distance_km": 121.56,
      "station_name": "TUCUMAN AERO",
      "source": "SMN georef location search"
    },
    "2630": {
      "id": 2630,
      "name": "La Constancia",
      "department": "Pellegrini",
      "province": "Santiago del Estero",
      "station_number": 87129,
      "forecast_reference_id": 2474,
      "lon": -63.8416,
      "lat": -26.5443,
      "distance_km": 141.61,
      "station_name": "SANTIAGO DEL ESTERO AERO",
      "source": "SMN georef location search"
    },
    "2631": {
      "id": 2631,
      "name": "Vinal Selsliana",
      "department": "Pellegrini",
      "province": "Santiago del Estero",
      "station_number": 87129,
      "forecast_reference_id": 2474,
      "lon": -63.832,
      "lat": -26.5908,
      "distance_km": 137.06,
      "station_name": "SANTIAGO DEL ESTERO AERO",
      "source": "SMN georef location search"
    },
    "2632": {
      "id": 2632,
      "name": "San Nicolás",
      "department": "Jimenez",
      "province": "Santiago del Estero",
      "station_number": 87127,
      "forecast_reference_id": 2819,
      "lon": -63.8284,
      "lat": -26.8046,
      "distance_km": 134.38,
      "station_name": "TERMAS DE RIO HONDO AERO",
      "source": "SMN georef location search"
    },
    "2642": {
      "id": 2642,
      "name": "Santo Domingo",
      "department": "Pellegrini",
      "province": "Santiago del Estero",
      "station_number": 87050,
      "forecast_reference_id": 2474,
      "lon": -63.7808,
      "lat": -26.2173,
      "distance_km": 142.02,
      "station_name": "METAN",
      "source": "SMN georef location search"
    },
    "2649": {
      "id": 2649,
      "name": "La Fortuna",
      "department": "Alberdi",
      "province": "Santiago del Estero",
      "station_number": 87129,
      "forecast_reference_id": 2474,
      "lon": -63.6534,
      "lat": -26.3753,
      "distance_km": 165.76,
      "station_name": "SANTIAGO DEL ESTERO AERO",
      "source": "SMN georef location search"
    },
    "2652": {
      "id": 2652,
      "name": "Vinal Suni",
      "department": "Copo",
      "province": "Santiago del Estero",
      "station_number": 87050,
      "forecast_reference_id": 2474,
      "lon": -63.6641,
      "lat": -26.056,
      "distance_km": 143.88,
      "station_name": "METAN",
      "source": "SMN georef location search"
    },
    "2654": {
      "id": 2654,
      "name": "San Luis",
      "department": "Alberdi",
      "province": "Santiago del Estero",
      "station_number": 87129,
      "forecast_reference_id": 2474,
      "lon": -63.666,
      "lat": -26.4911,
      "distance_km": 153.48,
      "station_name": "SANTIAGO DEL ESTERO AERO",
      "source": "SMN georef location search"
    },
    "2659": {
      "id": 2659,
      "name": "Luján",
      "department": "Jimenez",
      "province": "Santiago del Estero",
      "station_number": 87127,
      "forecast_reference_id": 2819,
      "lon": -63.7389,
      "lat": -26.6267,
      "distance_km": 153.48,
      "station_name": "TERMAS DE RIO HONDO AERO",
      "source": "SMN georef location search"
    },
    "2676": {
      "id": 2676,
      "name": "Santos Lugares",
      "department": "Alberdi",
      "province": "Santiago del Estero",
      "station_number": 87129,
      "forecast_reference_id": 2474,
      "lon": -63.5578,
      "lat": -26.6852,
      "distance_km": 139.46,
      "station_name": "SANTIAGO DEL ESTERO AERO",
      "source": "SMN georef location search"
    },
    "2685": {
      "id": 2685,
      "name": "Vinal Viejo",
      "department": "Alberdi",
      "province": "Santiago del Estero",
      "station_number": 87129,
      "forecast_reference_id": 2474,
      "lon": -63.558,
      "lat": -26.5151,
      "distance_km": 155.81,
      "station_name": "SANTIAGO DEL ESTERO AERO",
      "source": "SMN georef location search"
    },
    "2700": {
      "id": 2700,
      "name": "Santa María",
      "department": "Alberdi",
      "province": "Santiago del Estero",
      "station_number": 87129,
      "forecast_reference_id": 2474,
      "lon": -63.3677,
      "lat": -26.5378,
      "distance_km": 163.47,
      "station_name": "SANTIAGO DEL ESTERO AERO",
      "source": "SMN georef location search"
    },